{
   "bucket" : "parkrun-au",
   "events" : [
      {
         "country" : "United Kingdom",
         "latitude" : 51.410992,
         "longitude" : -0.335791,
         "mid" : "zj7h2Fr7knm4.kmi-jDrZZSRc",
         "name" : "Bushy Park",
         "refreshed" : "2023-09-05T02:31:34+00:00",
         "start" : "09:00",
         "start_dst" : "09:00",
         "state" : "2e00385f-8e3f-51b4-9712-fc6f174f2b16",
         "timezone" : "Europe/London",
         "uuid" : "1721c866-871b-5f30-b2e2-ad7473c341e9",
         "version" : "1.0.1"
      },
      {
         "country" : "United Kingdom",
         "latitude" : 51.442078,
         "longitude" : -0.232215,
         "mid" : "1x33tNoKo8GuYtz2nGk2UyYrJ3GE",
         "name" : "Wimbledon Common",
         "refreshed" : "2023-09-05T02:31:34+00:00",
         "start" : "09:00",
         "start_dst" : "09:00",
         "state" : "f4b8073d-94cd-57ae-9f10-9273a51a46d8",
         "timezone" : "Europe/London",
         "uuid" : "c23f7930-c8c7-550e-8ec1-762eb1bc59fb",
         "version" : "1.0.1"
      },
      {
         "country" : "United Kingdom",
         "latitude" : 51.307648,
         "longitude" : -0.184225,
         "mid" : "1hEhBBxRI0oL96m3tS7p2_eU2snY",
         "name" : "Banstead Woods",
         "refreshed" : "2023-09-05T02:31:34+00:00",
         "start" : "09:00",
         "start_dst" : "09:00",
         "state" : "6c5f5b7a-36bd-54d6-b8d3-41b2a9d5cff2",
         "timezone" : "Europe/London",
         "uuid" : "8590ef6c-bb44-526c-a30b-cf9776dae97d",
         "version" : "1.0.1"
      },
      {
         "country" : "United Kingdom",
         "latitude" : 51.451962,
         "longitude" : -0.292886,
         "mid" : "1wZYP_KUkY4Bz1643J2pZOYnGBxk",
         "name" : "Richmond Park",
         "refreshed" : "2023-09-05T02:31:34+00:00",
         "start" : "09:00",
         "start_dst" : "09:00",
         "state" : "a2627658-72d5-50ac-8cfa-8ec8f2aef763",
         "timezone" : "Europe/London",
         "uuid" : "3d5027e4-8902-50dd-a2ed-0a5e824f65b5",
         "version" : "1.0.1"
      },
      {
         "country" : "United Kingdom",
         "latitude" : 53.808582,
         "longitude" : -1.560059,
         "mid" : "1tNbdPx6SKQSqEYJF4Bg6ZShsDmLEnGeM",
         "name" : "Woodhouse Moor",
         "refreshed" : "2023-09-05T02:31:34+00:00",
         "start" : "09:00",
         "start_dst" : "09:00",
         "state" : "9f5fbcd4-5af1-55c2-a461-622d9c2bbd9e",
         "timezone" : "Europe/London",
         "uuid" : "bfb93f9e-e561-5b13-a960-4110b1863145",
         "version" : "1.0.1"
      },
      {
         "country" : "United Kingdom",
         "latitude" : 53.374268,
         "longitude" : -2.160702,
         "mid" : "1avEDwZQcMPHmeJ_IHwzZBJiF9GA",
         "name" : "Bramhall Park",
         "refreshed" : "2023-09-05T02:31:34+00:00",
         "start" : "09:00",
         "start_dst" : "09:00",
         "state" : "9ee3dcc9-2780-5204-89fd-0ffbb8f74af5",
         "timezone" : "Europe/London",
         "uuid" : "6e697689-aec4-59f8-bb41-7ab69ca918be",
         "version" : "1.0.1"
      },
      {
         "country" : "United Kingdom",
         "latitude" : 50.84214,
         "longitude" : -0.172498,
         "mid" : "1MN_GCE_Flnkt18rxMKhbkVzVSUc",
         "name" : "Brighton & Hove",
         "refreshed" : "2023-09-05T02:31:34+00:00",
         "start" : "09:00",
         "start_dst" : "09:00",
         "state" : "c6c016ac-0f25-56d4-8135-ab683c98994f",
         "timezone" : "Europe/London",
         "uuid" : "e88ed6e7-8ba6-5a75-b399-05746afec577",
         "version" : "1.0.1"
      },
      {
         "country" : "United Kingdom",
         "latitude" : 51.49736,
         "longitude" : -3.207107,
         "mid" : "1nlmyCzb5vB3HHEbT8sBIFx7xRzc",
         "name" : "Cardiff",
         "refreshed" : "2023-09-05T02:31:34+00:00",
         "start" : "09:00",
         "start_dst" : "09:00",
         "state" : "f4fc13c1-b386-5773-ad47-f97da87a27d6",
         "timezone" : "Europe/London",
         "uuid" : "a1f05f3e-503a-5988-81e0-59d39e27debc",
         "version" : "1.0.1"
      },
      {
         "country" : "United Kingdom",
         "latitude" : 54.564972,
         "longitude" : -1.231788,
         "mid" : "1TSJ6wtG2w39yB1pMp20eojP77fY",
         "name" : "Albert",
         "refreshed" : "2023-09-05T02:31:34+00:00",
         "start" : "09:00",
         "start_dst" : "09:00",
         "state" : "fda374d3-b367-538c-92c0-a31fb08a3642",
         "timezone" : "Europe/London",
         "uuid" : "25f2f69b-2582-5cb0-8da6-0f134a74d2c5",
         "version" : "1.0.1"
      },
      {
         "country" : "United Kingdom",
         "latitude" : 51.258831,
         "longitude" : -1.082035,
         "mid" : "zj7h2Fr7knm4.khR_ZHQsMVNI",
         "name" : "Basingstoke",
         "refreshed" : "2023-09-05T02:31:34+00:00",
         "start" : "09:00",
         "start_dst" : "09:00",
         "state" : "94cf7288-56f7-5a2d-b401-0a06286081e1",
         "timezone" : "Europe/London",
         "uuid" : "5e22aadc-3b12-5a3c-880c-583100340bdc",
         "version" : "1.0.1"
      },
      {
         "country" : "United Kingdom",
         "latitude" : 55.82992,
         "longitude" : -4.307882,
         "mid" : "1YzEFptA8CAMK5hwBkBBHX3_N_9C4m0CJ",
         "name" : "Pollok",
         "refreshed" : "2023-09-05T02:31:34+00:00",
         "start" : "09:30",
         "start_dst" : "09:30",
         "state" : "a2e74991-fdb3-5e8d-b7f9-9918a6b06746",
         "timezone" : "Europe/London",
         "uuid" : "31a6ca42-0541-51d0-bebf-5c628b68a501",
         "version" : "1.0.1"
      },
      {
         "country" : "United Kingdom",
         "latitude" : 52.567806,
         "longitude" : 1.73069,
         "mid" : "1raT2wI73n5ZxLY1V7k3ETE1ddsg",
         "name" : "Gorleston",
         "refreshed" : "2023-09-05T02:31:34+00:00",
         "start" : "09:00",
         "start_dst" : "09:00",
         "state" : "23774f23-e81c-598b-9c7a-d829e8ea0435",
         "timezone" : "Europe/London",
         "uuid" : "9d135545-30b0-5cc9-96d8-853d4262191d",
         "version" : "1.0.1"
      },
      {
         "country" : "United Kingdom",
         "latitude" : 51.440762,
         "longitude" : -0.451523,
         "mid" : "1V7eijgb1psTNlR_rFYVj5hPW7VI",
         "name" : "Bedfont Lakes",
         "refreshed" : "2023-09-05T02:31:34+00:00",
         "start" : "09:00",
         "start_dst" : "09:00",
         "state" : "17bd9ab7-71b3-507c-981f-4c929c2d5078",
         "timezone" : "Europe/London",
         "uuid" : "319a0c2b-3ba1-5505-a8e7-dc65a7ee49ed",
         "version" : "1.0.1"
      },
      {
         "country" : "United Kingdom",
         "latitude" : 53.531975,
         "longitude" : -2.256263,
         "mid" : "1l-zmrvdUTdDw_4LPFOy9TsO962Ti1qrY",
         "name" : "Heaton Park",
         "refreshed" : "2023-09-05T02:31:34+00:00",
         "start" : "09:00",
         "start_dst" : "09:00",
         "state" : "0794e467-1563-566d-b74a-ea51e929ac34",
         "timezone" : "Europe/London",
         "uuid" : "9e36b908-1450-5573-bc20-0e4309bf93ff",
         "version" : "1.0.1"
      },
      {
         "country" : "United Kingdom",
         "latitude" : 51.352253,
         "longitude" : -0.11872,
         "mid" : "1zX8J1w6ZWF4EclhR-8svwnYy1dI",
         "name" : "Roundshaw Downs",
         "refreshed" : "2023-09-05T02:31:34+00:00",
         "start" : "09:00",
         "start_dst" : "09:00",
         "state" : "38d00004-f580-5855-8b38-f085b43a71c5",
         "timezone" : "Europe/London",
         "uuid" : "c7556ef9-6e5e-5896-9de6-431e1780cc47",
         "version" : "1.0.1"
      },
      {
         "country" : "United Kingdom",
         "latitude" : 51.460384,
         "longitude" : -0.941573,
         "mid" : "1MahthqedkBUTQ2xTf0A7pvgmwaQ",
         "name" : "Reading",
         "refreshed" : "2023-09-05T02:31:34+00:00",
         "start" : "09:00",
         "start_dst" : "09:00",
         "state" : "b35fbe37-a911-5e5b-881c-9240f1d63c60",
         "timezone" : "Europe/London",
         "uuid" : "c06b5b63-654a-540a-924b-e526a58ed62f",
         "version" : "1.0.1"
      },
      {
         "country" : "United Kingdom",
         "latitude" : 53.408405,
         "longitude" : -2.130945,
         "mid" : "1V567CGUylU6qeT7M9qDCGsEcnjk",
         "name" : "Woodbank",
         "refreshed" : "2023-09-05T02:31:34+00:00",
         "start" : "09:00",
         "start_dst" : "09:00",
         "state" : "36e585af-283f-5f99-8eaa-ca784f627ff5",
         "timezone" : "Europe/London",
         "uuid" : "cc7055cf-e7e2-5724-a02d-17d4a086f304",
         "version" : "1.0.1"
      },
      {
         "country" : "United Kingdom",
         "latitude" : 51.540329,
         "longitude" : -0.5476,
         "mid" : "1ImV8WgyJK51NLiTeZUC17IlnA4I",
         "name" : "Black Park",
         "refreshed" : "2023-09-05T02:31:34+00:00",
         "start" : "09:00",
         "start_dst" : "09:00",
         "state" : "ca039958-de52-5f14-bb03-d7f01ec5d777",
         "timezone" : "Europe/London",
         "uuid" : "ba1a9917-34e9-5498-b22f-48525efbe59e",
         "version" : "1.0.1"
      },
      {
         "country" : "United Kingdom",
         "latitude" : 54.883911,
         "longitude" : -1.409099,
         "mid" : "1Dka5Ki1Qwcr8ywHZSl2khrk_SV0",
         "name" : "Silksworth",
         "refreshed" : "2023-09-05T02:31:34+00:00",
         "start" : "09:00",
         "start_dst" : "09:00",
         "state" : "2bd92e9d-99c4-5025-9092-56efddddcd48",
         "timezone" : "Europe/London",
         "uuid" : "b61eb343-cbed-564e-9115-6493354bb690",
         "version" : "1.0.1"
      },
      {
         "country" : "United Kingdom",
         "latitude" : 51.569595,
         "longitude" : -0.104145,
         "mid" : "1mOwK-LVYJvagBTJRuPUEl-N6hG0",
         "name" : "Finsbury Park",
         "refreshed" : "2023-09-05T02:31:34+00:00",
         "start" : "09:00",
         "start_dst" : "09:00",
         "state" : "374597a4-a3b6-5db5-a598-2093eb220c0e",
         "timezone" : "Europe/London",
         "uuid" : "a2064ece-7d71-5f9d-a5cd-d81d7dfe7d78",
         "version" : "1.0.1"
      },
      {
         "country" : "Australia",
         "latitude" : -33.907658,
         "longitude" : 151.18219,
         "mid" : "zj7h2Fr7knm4.kcrGG0GOkgi0",
         "name" : "St Peters",
         "refreshed" : "2023-09-05T02:31:34+00:00",
         "start" : "08:00",
         "start_dst" : "08:00",
         "state" : "835f4da8-caf5-57b0-ba86-e4339cffc2ca",
         "timezone" : "Australia/Sydney",
         "uuid" : "618cb4d4-8687-5b12-a7c4-d3551b275ef5",
         "version" : "1.0.1"
      },
      {
         "country" : "United Kingdom",
         "latitude" : 55.978806,
         "longitude" : -3.291585,
         "mid" : "1WGx7HyPlAINitGJ1R4vMIsgHYfA",
         "name" : "Edinburgh",
         "refreshed" : "2023-09-05T02:31:34+00:00",
         "start" : "09:30",
         "start_dst" : "09:30",
         "state" : "2757a212-9530-5120-a8ab-976502c4aa5e",
         "timezone" : "Europe/London",
         "uuid" : "f3554e6f-07a5-5045-99e9-09f242188fbd",
         "version" : "1.0.1"
      },
      {
         "country" : "United Kingdom",
         "latitude" : 51.386539,
         "longitude" : 0.022874,
         "mid" : "zj7h2Fr7knm4.kOhIcVy49I-c",
         "name" : "Bromley",
         "refreshed" : "2023-09-05T02:31:34+00:00",
         "start" : "09:00",
         "start_dst" : "09:00",
         "state" : "bfb2b541-859b-56f7-b665-e2cf9fac5a05",
         "timezone" : "Europe/London",
         "uuid" : "2eee31b5-61cd-56c4-a545-5d746e09632f",
         "version" : "1.0.1"
      },
      {
         "country" : "United Kingdom",
         "latitude" : 53.446072,
         "longitude" : -2.224689,
         "mid" : "14q53WgOJEVrl5m4AkfAEgvujORAL3E__",
         "name" : "South Manchester",
         "refreshed" : "2023-09-05T02:31:34+00:00",
         "start" : "09:00",
         "start_dst" : "09:00",
         "state" : "a8059f1f-165f-5edc-8914-c65971642b21",
         "timezone" : "Europe/London",
         "uuid" : "621d8673-3f8e-5ad3-8004-e4f8cbf199ab",
         "version" : "1.0.1"
      },
      {
         "country" : "United Kingdom",
         "latitude" : 51.455132,
         "longitude" : 0.113254,
         "mid" : "1XpU7SR6zQuS3DFi2SedvQ_EPrHE",
         "name" : "Bexley",
         "refreshed" : "2023-09-05T02:31:34+00:00",
         "start" : "09:00",
         "start_dst" : "09:00",
         "state" : "1cfc543a-2a0c-5737-8593-8463804a35c8",
         "timezone" : "Europe/London",
         "uuid" : "6f6c1a89-73ce-53db-93a4-08a666590e77",
         "version" : "1.0.1"
      },
      {
         "country" : "United Kingdom",
         "latitude" : 53.672488,
         "longitude" : -1.509682,
         "mid" : "191TGV-qa7MahhzaWcvnF7WbVf9k",
         "name" : "Wakefield Thornes",
         "refreshed" : "2023-09-05T02:31:34+00:00",
         "start" : "09:00",
         "start_dst" : "09:00",
         "state" : "0624cd92-14c5-51cc-9cad-55ce0992d64f",
         "timezone" : "Europe/London",
         "uuid" : "0f52edc7-b24a-52b0-977b-531c3c90da04",
         "version" : "1.0.1"
      },
      {
         "country" : "United Kingdom",
         "latitude" : 51.581781,
         "longitude" : -0.342734,
         "mid" : "z1IWCRFkMAYk.k4QF5enVb3h4",
         "name" : "Harrow",
         "refreshed" : "2023-09-05T02:31:34+00:00",
         "start" : "09:00",
         "start_dst" : "09:00",
         "state" : "b48d8592-bfc7-5322-8231-2a3ae212c7b5",
         "timezone" : "Europe/London",
         "uuid" : "07482a08-81fd-5369-9dba-d034b722007c",
         "version" : "1.0.1"
      },
      {
         "country" : "United Kingdom",
         "latitude" : 53.764645,
         "longitude" : -0.300708,
         "mid" : "16TBnomzl4dcFXii_FCAvXVGwj0w",
         "name" : "Hull",
         "refreshed" : "2023-09-05T02:31:34+00:00",
         "start" : "09:00",
         "start_dst" : "09:00",
         "state" : "6d1eb3c8-7dff-5c95-898d-de124cebecd7",
         "timezone" : "Europe/London",
         "uuid" : "54952834-5397-53f2-bf38-eea5cc0c7652",
         "version" : "1.0.1"
      },
      {
         "country" : "United Kingdom",
         "latitude" : 51.549769,
         "longitude" : 0.59606,
         "mid" : "14WseZCII8xahBLNlE-9cDAi6nVc",
         "name" : "Hadleigh",
         "refreshed" : "2023-09-05T02:31:34+00:00",
         "start" : "09:00",
         "start_dst" : "09:00",
         "state" : "d85250e5-e267-550f-b9e2-e1151965a4fd",
         "timezone" : "Europe/London",
         "uuid" : "828cfa4c-8372-5f53-a1fe-c3aed8b2e99b",
         "version" : "1.0.1"
      },
      {
         "country" : "United Kingdom",
         "latitude" : 52.068807,
         "longitude" : -1.332318,
         "mid" : "1J-I2QoOAHzpSmFY-q8JWZTy6tUY",
         "name" : "Banbury",
         "refreshed" : "2023-09-05T02:31:34+00:00",
         "start" : "09:00",
         "start_dst" : "09:00",
         "state" : "9f5be4e6-1a95-516a-8498-681588ae304b",
         "timezone" : "Europe/London",
         "uuid" : "c60dac2e-4741-51d5-a4a4-bc0f6d487a04",
         "version" : "1.0.1"
      },
      {
         "country" : "United Kingdom",
         "latitude" : 50.806248,
         "longitude" : 0.290451,
         "mid" : "1oO0AzLgHGN1T4DyI8IZrDXbqoOs",
         "name" : "Eastbourne",
         "refreshed" : "2023-09-05T02:31:34+00:00",
         "start" : "09:00",
         "start_dst" : "09:00",
         "state" : "68500c99-26b7-52d4-9ced-10509890dc9e",
         "timezone" : "Europe/London",
         "uuid" : "c699ac6a-28db-512d-ab80-f0da194b0f5b",
         "version" : "1.0.1"
      },
      {
         "country" : "United Kingdom",
         "latitude" : 57.173898,
         "longitude" : -2.086256,
         "mid" : "1EaBBg6Gee_W8Kw2JWPec6_S8KOM",
         "name" : "Aberdeen",
         "refreshed" : "2023-09-05T02:31:34+00:00",
         "start" : "09:30",
         "start_dst" : "09:30",
         "state" : "de632929-54cb-54f4-983a-51d304a351fc",
         "timezone" : "Europe/London",
         "uuid" : "9d3fbb4f-1611-5710-917a-84a8a56ecd66",
         "version" : "1.0.1"
      },
      {
         "country" : "United Kingdom",
         "latitude" : 51.633076,
         "longitude" : -0.113769,
         "mid" : "1OZM8GJiSzA4L4k20HWCMTwcqhqo",
         "name" : "Grovelands",
         "refreshed" : "2023-09-05T02:31:34+00:00",
         "start" : "09:00",
         "start_dst" : "09:00",
         "state" : "2ec1b27c-ac74-5e44-a41c-01ecee5e3756",
         "timezone" : "Europe/London",
         "uuid" : "5e6b4dd1-457f-5261-ada0-685c7805fc4f",
         "version" : "1.0.1"
      },
      {
         "country" : "United Kingdom",
         "latitude" : 51.889853,
         "longitude" : -0.420917,
         "mid" : "1D__7VfMVaEjJglAKeSUR9OEpxPU",
         "name" : "Luton Wardown",
         "refreshed" : "2023-09-05T02:31:34+00:00",
         "start" : "09:00",
         "start_dst" : "09:00",
         "state" : "68394512-322f-5d72-ba49-8e0acc60c71a",
         "timezone" : "Europe/London",
         "uuid" : "e66e4916-30fa-5c54-9b08-35520061c320",
         "version" : "1.0.1"
      },
      {
         "country" : "United Kingdom",
         "latitude" : 51.577778,
         "longitude" : 0.499615,
         "mid" : "1q34zG1CBLsGlbSB1YQw0MRTXLNs",
         "name" : "Basildon",
         "refreshed" : "2023-09-05T02:31:34+00:00",
         "start" : "09:00",
         "start_dst" : "09:00",
         "state" : "39fd1655-c20b-55ed-8e4f-c8af290e4d8a",
         "timezone" : "Europe/London",
         "uuid" : "ecc2800a-e1ea-5402-bd5f-6843af3d02f7",
         "version" : "1.0.1"
      },
      {
         "country" : "United Kingdom",
         "latitude" : 56.057791,
         "longitude" : -3.881607,
         "mid" : "1dObaHGqqslIoWf6dXhv9bDi6wfw",
         "name" : "Plean",
         "refreshed" : "2023-09-05T02:31:34+00:00",
         "start" : "09:30",
         "start_dst" : "09:30",
         "state" : "ca41bef9-5044-59af-b56c-093d789cd21a",
         "timezone" : "Europe/London",
         "uuid" : "fb6b7c44-014a-5fa4-82f7-a80ea229d273",
         "version" : "1.0.1"
      },
      {
         "country" : "United Kingdom",
         "latitude" : 51.821487,
         "longitude" : -2.272804,
         "mid" : "z1IWCRFkMAYk.kxPPgwVbt4Lw",
         "name" : "Kingsway",
         "refreshed" : "2023-09-05T02:31:34+00:00",
         "start" : "09:00",
         "start_dst" : "09:00",
         "state" : "e2c98ee8-a164-5931-b388-81eee31c0b05",
         "timezone" : "Europe/London",
         "uuid" : "2f0751ea-92bc-53ce-b9cf-eb0a004d9a8b",
         "version" : "1.0.1"
      },
      {
         "country" : "United Kingdom",
         "latitude" : 51.298622,
         "longitude" : -0.724851,
         "mid" : "1erIDAos2l3jV97kwkpAqm9euvy4",
         "name" : "Frimley Lodge",
         "refreshed" : "2023-09-05T02:31:34+00:00",
         "start" : "09:00",
         "start_dst" : "09:00",
         "state" : "2a421ba4-3329-587d-9b93-edeed714c55f",
         "timezone" : "Europe/London",
         "uuid" : "5c7f344b-3637-56b9-97dd-5afc02332fc1",
         "version" : "1.0.1"
      },
      {
         "country" : "United Kingdom",
         "latitude" : 51.443592,
         "longitude" : -2.639948,
         "mid" : "1-Rb3nbcvlQRXOJIqPDswU1oqD48",
         "name" : "Ashton Court",
         "refreshed" : "2023-09-05T02:31:34+00:00",
         "start" : "09:00",
         "start_dst" : "09:00",
         "state" : "c55dbf71-fa56-542b-9e2c-37c93ba1c953",
         "timezone" : "Europe/London",
         "uuid" : "06c009dc-08ee-56c0-931c-6940d13aa68e",
         "version" : "1.0.1"
      },
      {
         "country" : "United Kingdom",
         "latitude" : 51.553686,
         "longitude" : -0.025368,
         "mid" : "1kVweFTdD9DiipfIfEIurFUKUq3k",
         "name" : "Hackney Marshes",
         "refreshed" : "2023-09-05T02:31:34+00:00",
         "start" : "09:00",
         "start_dst" : "09:00",
         "state" : "c79cfa18-db6a-51d4-93e2-9287273e4138",
         "timezone" : "Europe/London",
         "uuid" : "7d6f06f1-1f3f-51d4-b936-7c74c3f9a0ae",
         "version" : "1.0.1"
      },
      {
         "country" : "Australia",
         "latitude" : -37.843521,
         "longitude" : 144.96312,
         "mid" : "1NfqlpN73QMEq534Z94E4PUkTHHM",
         "name" : "Albert Melbourne",
         "refreshed" : "2023-09-05T02:31:34+00:00",
         "start" : "08:00",
         "start_dst" : "08:00",
         "state" : "ddd8f746-5ff5-56b2-9c36-defb95055f35",
         "timezone" : "Australia/Melbourne",
         "uuid" : "ae554cf2-e1d3-52c9-96b1-0cc81d39a909",
         "version" : "1.0.1"
      },
      {
         "country" : "United Kingdom",
         "latitude" : 51.449459,
         "longitude" : 0.075155,
         "mid" : "1AavHKHGlbNJGdxob6LDwlrrdVXY",
         "name" : "Greenwich",
         "refreshed" : "2023-09-05T02:31:34+00:00",
         "start" : "09:00",
         "start_dst" : "09:00",
         "state" : "4d9c0663-0c56-50e0-a0f9-6012c0e2e6a5",
         "timezone" : "Europe/London",
         "uuid" : "7e537747-a439-51ee-a572-552307871bd9",
         "version" : "1.0.1"
      },
      {
         "country" : "United Kingdom",
         "latitude" : 50.535163,
         "longitude" : -4.201763,
         "mid" : "1-inaU5f1XYy6qyuQ34jQdVi7PTE",
         "name" : "Tamar Trails",
         "refreshed" : "2023-09-05T02:31:34+00:00",
         "start" : "09:00",
         "start_dst" : "09:00",
         "state" : "086773ff-f5fe-5752-8530-c93fdede8ae9",
         "timezone" : "Europe/London",
         "uuid" : "1ed2a9ba-4420-54df-a618-e860bce1306e",
         "version" : "1.0.1"
      },
      {
         "country" : "United Kingdom",
         "latitude" : 51.464417,
         "longitude" : -0.306973,
         "mid" : "1WLN7a3xztKmB8c9JQHWW0o42cp8",
         "name" : "Old Deer Park",
         "refreshed" : "2023-09-05T02:31:34+00:00",
         "start" : "09:00",
         "start_dst" : "09:00",
         "state" : "c25d4640-60e2-5f5c-af11-821ca96c8633",
         "timezone" : "Europe/London",
         "uuid" : "b39cfc66-58b0-5348-8853-a26ae11ddc90",
         "version" : "1.0.1"
      },
      {
         "country" : "United Kingdom",
         "latitude" : 54.988451,
         "longitude" : -1.617143,
         "mid" : "1v-a3hnhtB_GGS61_bK6O2sGq_UY",
         "name" : "Town Moor",
         "refreshed" : "2023-09-05T02:31:34+00:00",
         "start" : "09:00",
         "start_dst" : "09:00",
         "state" : "2cee34b1-3233-506c-9193-1959840022da",
         "timezone" : "Europe/London",
         "uuid" : "5c7aa487-db04-5b20-b6ef-ccca6046a34c",
         "version" : "1.0.1"
      },
      {
         "country" : "United Kingdom",
         "latitude" : 52.945171,
         "longitude" : -1.09786,
         "mid" : "1fk-vzXhGJVwE66F_nlBoKqwu_KA",
         "name" : "Colwick",
         "refreshed" : "2023-09-05T02:31:34+00:00",
         "start" : "09:00",
         "start_dst" : "09:00",
         "state" : "e0b2344f-713f-594d-8a84-7c212ed6605a",
         "timezone" : "Europe/London",
         "uuid" : "812e87a6-685a-5e4f-aa18-41ce145951f3",
         "version" : "1.0.1"
      },
      {
         "country" : "United Kingdom",
         "latitude" : 53.751374,
         "longitude" : -2.703902,
         "mid" : "1pvy3vStacVCUwmECtYkwm8y2TBc",
         "name" : "Preston",
         "refreshed" : "2023-09-05T02:31:34+00:00",
         "start" : "09:00",
         "start_dst" : "09:00",
         "state" : "b9e2e228-6f0b-5cd1-9b38-f8a1e9efaa6f",
         "timezone" : "Europe/London",
         "uuid" : "549daafe-75b6-5659-9d8d-382eab16d13a",
         "version" : "1.0.1"
      },
      {
         "country" : "United Kingdom",
         "latitude" : 50.923624,
         "longitude" : -1.407766,
         "mid" : "1vL2Pqlv8cHvTyDAw5qXhV5NWR_Y",
         "name" : "Southampton",
         "refreshed" : "2023-09-05T02:31:34+00:00",
         "start" : "09:00",
         "start_dst" : "09:00",
         "state" : "5c752219-382a-5cb2-9cf1-e5f7cdcf642e",
         "timezone" : "Europe/London",
         "uuid" : "198009a6-279c-524b-baeb-58da7c561ce4",
         "version" : "1.0.1"
      },
      {
         "country" : "United Kingdom",
         "latitude" : 51.561489,
         "longitude" : -1.853621,
         "mid" : "1AMeyR9KmQIqoh5ZoJIQ_AhWJdbE",
         "name" : "Lydiard",
         "refreshed" : "2023-09-05T02:31:34+00:00",
         "start" : "09:00",
         "start_dst" : "09:00",
         "state" : "68534dc9-679a-54bc-a757-df2198dc5dd9",
         "timezone" : "Europe/London",
         "uuid" : "dfa10874-7b91-5aea-9e14-1be946506a96",
         "version" : "1.0.1"
      },
      {
         "country" : "United Kingdom",
         "latitude" : 54.099486,
         "longitude" : -6.193448,
         "mid" : "1i6pfYJkloq6RJRkIEKD3yTgyWG0",
         "name" : "Rostrevor",
         "refreshed" : "2023-09-05T02:31:34+00:00",
         "start" : "09:30",
         "start_dst" : "09:30",
         "state" : "2d7cf7b7-0aca-5475-bb2a-95dbdb52edc1",
         "timezone" : "Europe/London",
         "uuid" : "f4652e9a-3ff0-52e2-9010-c4b8253694d6",
         "version" : "1.0.1"
      },
      {
         "country" : "United Kingdom",
         "latitude" : 51.221092,
         "longitude" : -1.512766,
         "mid" : "1rv8crLwjWVn-yhIo_M81mQtNo54",
         "name" : "Andover",
         "refreshed" : "2023-09-05T02:31:34+00:00",
         "start" : "09:00",
         "start_dst" : "09:00",
         "state" : "8f1fed9d-d797-5dbf-9d0b-28474ad324e3",
         "timezone" : "Europe/London",
         "uuid" : "84d35c7f-7c5a-5f98-bc4c-4a326ef70138",
         "version" : "1.0.1"
      },
      {
         "country" : "United Kingdom",
         "latitude" : 54.968071,
         "longitude" : -1.863141,
         "mid" : "1HhVIwe2bj-h28gCWKbo0CR3bRsM",
         "name" : "Prudhoe Riverside",
         "refreshed" : "2023-09-05T02:31:34+00:00",
         "start" : "09:00",
         "start_dst" : "09:00",
         "state" : "0ea2340a-2605-5fd4-81e5-1283855ecce4",
         "timezone" : "Europe/London",
         "uuid" : "6ecc89cf-6d7f-5918-aae9-dd37d06dac09",
         "version" : "1.0.1"
      },
      {
         "country" : "United Kingdom",
         "latitude" : 51.808701,
         "longitude" : -2.605219,
         "mid" : "1Djocb_wn4RU0YeDSOpPZNzNQvwI",
         "name" : "Forest of Dean",
         "refreshed" : "2023-09-05T02:31:34+00:00",
         "start" : "09:00",
         "start_dst" : "09:00",
         "state" : "ed29416c-e05e-5116-8cd6-e85e797175af",
         "timezone" : "Europe/London",
         "uuid" : "28c0f784-04a2-584a-9c70-51a6ed8fffca",
         "version" : "1.0.1"
      },
      {
         "country" : "United Kingdom",
         "latitude" : 52.39172,
         "longitude" : -1.524026,
         "mid" : "1kT1JdfJl90u2uyepnHo8RMskjbg",
         "name" : "Coventry",
         "refreshed" : "2023-09-05T02:31:34+00:00",
         "start" : "09:00",
         "start_dst" : "09:00",
         "state" : "2dfe0136-4c77-5b4a-b373-653be5f7a64e",
         "timezone" : "Europe/London",
         "uuid" : "5b1a395f-37a0-5f79-852e-5d7ddaf6cf6a",
         "version" : "1.0.1"
      },
      {
         "country" : "United Kingdom",
         "latitude" : 51.247383,
         "longitude" : -0.562062,
         "mid" : "1f3652Ax5m3EExa1tJ_NeFZQQyoI",
         "name" : "Guildford",
         "refreshed" : "2023-09-05T02:31:34+00:00",
         "start" : "09:00",
         "start_dst" : "09:00",
         "state" : "e12571f4-8b5a-5e70-a53b-ad1262f531cc",
         "timezone" : "Europe/London",
         "uuid" : "6d357d83-706c-558b-ad19-aee6fd083b9d",
         "version" : "1.0.1"
      },
      {
         "country" : "United Kingdom",
         "latitude" : 51.558598,
         "longitude" : -0.168185,
         "mid" : "1Qf-YyM_zG9iBncp0Ba4x8SQq0_k",
         "name" : "Hampstead Heath",
         "refreshed" : "2023-09-05T02:31:34+00:00",
         "start" : "09:00",
         "start_dst" : "09:00",
         "state" : "b61fd1ed-dbfb-563d-9d70-237f602482f6",
         "timezone" : "Europe/London",
         "uuid" : "3a99aecb-f69a-5b5a-8829-58484604fefb",
         "version" : "1.0.1"
      },
      {
         "country" : "United Kingdom",
         "latitude" : 52.050923,
         "longitude" : 1.116032,
         "mid" : "1ULGhzXVbWudqf3IriDHUipLcBRw",
         "name" : "Ipswich",
         "refreshed" : "2023-09-05T02:31:34+00:00",
         "start" : "09:00",
         "start_dst" : "09:00",
         "state" : "a6909f8c-c6df-521e-8de6-35177e3b0272",
         "timezone" : "Europe/London",
         "uuid" : "a308a166-0814-5945-8a48-a2cd54d13020",
         "version" : "1.0.1"
      },
      {
         "country" : "United Kingdom",
         "latitude" : 51.426567,
         "longitude" : -0.309516,
         "mid" : "1OTFPls-ZYsmfhIiOK9de5614n18",
         "name" : "Kingston",
         "refreshed" : "2023-09-05T02:31:34+00:00",
         "start" : "09:00",
         "start_dst" : "09:00",
         "state" : "7c899ae5-eb27-599f-ab58-f03846d04470",
         "timezone" : "Europe/London",
         "uuid" : "61627cd4-60bb-57cf-bd74-51a97b4bfe68",
         "version" : "1.0.1"
      },
      {
         "country" : "United Kingdom",
         "latitude" : 51.452538,
         "longitude" : -0.105464,
         "mid" : "1ko_pwbdl_Oy7NM0a9XZ1ASStjWs",
         "name" : "Brockwell",
         "refreshed" : "2023-09-05T02:31:34+00:00",
         "start" : "09:00",
         "start_dst" : "09:00",
         "state" : "44879465-e288-5c0d-b66f-eafeef745740",
         "timezone" : "Europe/London",
         "uuid" : "85908970-848f-5ae5-8673-bf33c1a7d7bb",
         "version" : "1.0.1"
      },
      {
         "country" : "United Kingdom",
         "latitude" : 52.28714,
         "longitude" : -1.504655,
         "mid" : "1J8wAKIJ_NlIouOrTt6bgEXOR9Pk",
         "name" : "Leamington",
         "refreshed" : "2023-09-05T02:31:34+00:00",
         "start" : "09:00",
         "start_dst" : "09:00",
         "state" : "b820d0d2-4ab5-5ec5-b65b-19858e5b698b",
         "timezone" : "Europe/London",
         "uuid" : "a2bc766d-aff9-52a2-a2a7-713f6cb26ebc",
         "version" : "1.0.1"
      },
      {
         "country" : "United Kingdom",
         "latitude" : 52.73744,
         "longitude" : -1.99542,
         "mid" : "1FhhSZ2t0qLn5VlxRmO_vwAQZJ0I",
         "name" : "Cannock Chase",
         "refreshed" : "2023-09-05T02:31:34+00:00",
         "start" : "09:00",
         "start_dst" : "09:00",
         "state" : "87f86f8a-9f18-5f0a-a019-6feaeea3c40a",
         "timezone" : "Europe/London",
         "uuid" : "f83089cf-6ea5-5f1c-9489-f6894fb158f2",
         "version" : "1.0.1"
      },
      {
         "country" : "United Kingdom",
         "latitude" : 51.29641,
         "longitude" : 0.507689,
         "mid" : "1u4d6nioTHhxBLeZTEWOkBJU7GlA",
         "name" : "Maidstone",
         "refreshed" : "2023-09-05T02:31:34+00:00",
         "start" : "09:00",
         "start_dst" : "09:00",
         "state" : "66b72cb9-b4d4-5308-ba39-321fbb8cf845",
         "timezone" : "Europe/London",
         "uuid" : "5c663681-9286-5c11-ba9d-f8d40eefe371",
         "version" : "1.0.1"
      },
      {
         "country" : "United Kingdom",
         "latitude" : 51.790901,
         "longitude" : -1.262419,
         "mid" : "12mG3H25rLZch9NGaIKBi9nZDzZc",
         "name" : "Oxford",
         "refreshed" : "2023-09-05T02:31:34+00:00",
         "start" : "09:00",
         "start_dst" : "09:00",
         "state" : "089cbd3f-cec5-58ff-8fbf-a441b69a6f65",
         "timezone" : "Europe/London",
         "uuid" : "a00e6e7c-74b7-514c-ad74-a50bcf18bdd7",
         "version" : "1.0.1"
      },
      {
         "country" : "United Kingdom",
         "latitude" : 50.409091,
         "longitude" : -4.079618,
         "mid" : "1qXA0gkwDT1dJQPtiFsZYxsFE84E",
         "name" : "Plymvalley",
         "refreshed" : "2023-09-05T02:31:34+00:00",
         "start" : "09:00",
         "start_dst" : "09:00",
         "state" : "97430529-4f90-5249-8e7e-6c6e07622220",
         "timezone" : "Europe/London",
         "uuid" : "9bfaff48-99af-5f80-96e9-57ab046e41e9",
         "version" : "1.0.1"
      },
      {
         "country" : "United Kingdom",
         "latitude" : 50.217331,
         "longitude" : -5.02826,
         "mid" : "1_uI7vKF1Swv1epCU-ttPm9ZY2bo",
         "name" : "Trelissick",
         "refreshed" : "2023-09-05T02:31:34+00:00",
         "start" : "09:00",
         "start_dst" : "09:00",
         "state" : "c5c3e2fd-69d7-583b-ae5f-fd36593c6679",
         "timezone" : "Europe/London",
         "uuid" : "8559eabd-5604-5e38-9a21-223007839f0d",
         "version" : "1.0.1"
      },
      {
         "country" : "United Kingdom",
         "latitude" : 51.588559,
         "longitude" : -2.993317,
         "mid" : "1xCjum_JtkVw-zkOYQaY8fN3BuuQ",
         "name" : "Riverfront",
         "refreshed" : "2023-09-05T02:31:34+00:00",
         "start" : "09:00",
         "start_dst" : "09:00",
         "state" : "1774c6c3-f739-5efd-bd60-756b4342621e",
         "timezone" : "Europe/London",
         "uuid" : "f6c93746-9f6e-5b05-bb91-5c3f499f7489",
         "version" : "1.0.1"
      },
      {
         "country" : "United Kingdom",
         "latitude" : 53.368631,
         "longitude" : -1.507364,
         "mid" : "1upReN-jCmuAOurx-HQAM-wK-Gm8",
         "name" : "Endcliffe",
         "refreshed" : "2023-09-05T02:31:34+00:00",
         "start" : "09:00",
         "start_dst" : "09:00",
         "state" : "d31af5e6-6eeb-54f2-bc12-6375aa496504",
         "timezone" : "Europe/London",
         "uuid" : "21eaa29e-28f1-519b-9f73-658610b835ae",
         "version" : "1.0.1"
      },
      {
         "country" : "United Kingdom",
         "latitude" : 53.781711,
         "longitude" : -2.376734,
         "mid" : "1b9-BLb_tXk9rOmeS1mT-YjaKGQ4",
         "name" : "Hyndburn",
         "refreshed" : "2023-09-05T02:31:34+00:00",
         "start" : "09:00",
         "start_dst" : "09:00",
         "state" : "4c30aa9e-e06d-5e9a-af17-1426b4d7e95e",
         "timezone" : "Europe/London",
         "uuid" : "cc7c0830-c3f7-5d8e-884f-04a6c7cb2328",
         "version" : "1.0.1"
      },
      {
         "country" : "United Kingdom",
         "latitude" : 50.778853,
         "longitude" : -1.081316,
         "mid" : "1mJA0KMtlcfmGhefEL1oq_88sHaI",
         "name" : "Southsea",
         "refreshed" : "2023-09-05T02:31:34+00:00",
         "start" : "09:00",
         "start_dst" : "09:00",
         "state" : "65af4469-81cb-5ae9-8225-f338c6f5ee09",
         "timezone" : "Europe/London",
         "uuid" : "c22a8dd8-ea0f-5cf4-b23c-02d071eb0f7d",
         "version" : "1.0.1"
      },
      {
         "country" : "United Kingdom",
         "latitude" : 51.75193,
         "longitude" : -0.355371,
         "mid" : "1SKHwyxAwX1v7LANwH2ltVdlSLddrKE3h",
         "name" : "St Albans",
         "refreshed" : "2023-09-05T02:31:34+00:00",
         "start" : "09:00",
         "start_dst" : "09:00",
         "state" : "d8744255-dcb4-530e-9aad-84769ec69477",
         "timezone" : "Europe/London",
         "uuid" : "556599c7-fc73-5b82-9f35-cdd445736383",
         "version" : "1.0.1"
      },
      {
         "country" : "United Kingdom",
         "latitude" : 53.935375,
         "longitude" : -1.101379,
         "mid" : "1i-izH2wIlADvEGjfrjQ-zSfg3yc",
         "name" : "York",
         "refreshed" : "2023-09-05T02:31:34+00:00",
         "start" : "09:00",
         "start_dst" : "09:00",
         "state" : "748057fd-aaa4-54e4-8eab-38ca294a1d40",
         "timezone" : "Europe/London",
         "uuid" : "782f2ee8-bf29-59e3-adfd-ce6d59dabc4a",
         "version" : "1.0.1"
      },
      {
         "country" : "United Kingdom",
         "latitude" : 50.875771,
         "longitude" : -0.975565,
         "mid" : "1LgrAIFHYh1Y1m5JSPxiY0hOhe7Tw52gw",
         "name" : "Havant",
         "refreshed" : "2023-09-05T02:31:34+00:00",
         "start" : "09:00",
         "start_dst" : "09:00",
         "state" : "ec041b39-f444-537d-b1ac-d5388664f1c3",
         "timezone" : "Europe/London",
         "uuid" : "15f6756e-309c-5794-ac80-0fe615517e26",
         "version" : "1.0.1"
      },
      {
         "country" : "United Kingdom",
         "latitude" : 52.37318,
         "longitude" : -1.238464,
         "mid" : "1qF43uVPBWqpYJ3GMAsD0tKB-BBY",
         "name" : "Rugby",
         "refreshed" : "2023-09-05T02:31:34+00:00",
         "start" : "09:00",
         "start_dst" : "09:00",
         "state" : "8bf8e1b8-7e80-57b1-943f-fa9407dcc919",
         "timezone" : "Europe/London",
         "uuid" : "15a03ef9-d69c-5c28-8d64-35d46d2aa66d",
         "version" : "1.0.1"
      },
      {
         "country" : "United Kingdom",
         "latitude" : 51.41853,
         "longitude" : -0.01959,
         "mid" : "1fV5ReWHOFVXuNwxpw2PZI7AXtvw",
         "name" : "Beckenham Place",
         "refreshed" : "2023-09-05T02:31:34+00:00",
         "start" : "09:00",
         "start_dst" : "09:00",
         "state" : "89be56ac-8cbd-5fab-b598-996de2891e9a",
         "timezone" : "Europe/London",
         "uuid" : "7df089f9-8459-5935-8aa1-ad66bd470d05",
         "version" : "1.0.1"
      },
      {
         "country" : "United Kingdom",
         "latitude" : 50.884669,
         "longitude" : -1.250819,
         "mid" : "1IWIS9m1FwqVgfA5l2V68l-a3ZsY",
         "name" : "Whiteley",
         "refreshed" : "2023-09-05T02:31:34+00:00",
         "start" : "09:00",
         "start_dst" : "09:00",
         "state" : "f319212c-d41e-5f50-9742-7b12b86359e5",
         "timezone" : "Europe/London",
         "uuid" : "e1ee165f-0927-51de-8a08-4ae2fe75a1fc",
         "version" : "1.0.1"
      },
      {
         "country" : "United Kingdom",
         "latitude" : 52.620422,
         "longitude" : 1.255682,
         "mid" : "zj7h2Fr7knm4.k-dFnPSvamg8",
         "name" : "Norwich",
         "refreshed" : "2023-09-05T02:31:34+00:00",
         "start" : "09:00",
         "start_dst" : "09:00",
         "state" : "076848f6-783b-5585-9155-d6be9f872ffa",
         "timezone" : "Europe/London",
         "uuid" : "964db21b-d54c-5364-95ae-08cb9669adff",
         "version" : "1.0.1"
      },
      {
         "country" : "United Kingdom",
         "latitude" : 50.423441,
         "longitude" : -3.564297,
         "mid" : "1-VhC76w0nnbumONP8ywgg-yP6f4",
         "name" : "Torbay Velopark",
         "refreshed" : "2023-09-05T02:31:34+00:00",
         "start" : "09:00",
         "start_dst" : "09:00",
         "state" : "facecde4-e54a-598a-8339-93d95d386068",
         "timezone" : "Europe/London",
         "uuid" : "a57167c4-5d37-5f1d-9889-ebb18f75dc30",
         "version" : "1.0.1"
      },
      {
         "country" : "United Kingdom",
         "latitude" : 51.14347,
         "longitude" : 0.864218,
         "mid" : "1StMbBbhfObE6Qkl19DY10dJzSgw",
         "name" : "Ashford",
         "refreshed" : "2023-09-05T02:31:34+00:00",
         "start" : "09:00",
         "start_dst" : "09:00",
         "state" : "fe2cca45-8cb8-52ef-a9c3-87f5cbf4830b",
         "timezone" : "Europe/London",
         "uuid" : "e169d12f-1d47-5555-a101-3b93dc21d11a",
         "version" : "1.0.1"
      },
      {
         "country" : "United Kingdom",
         "latitude" : 52.626129,
         "longitude" : -1.178681,
         "mid" : "1Eg9ApPEWhSEuV-iVIIeLIA5zlHs",
         "name" : "Braunstone",
         "refreshed" : "2023-09-05T02:31:34+00:00",
         "start" : "09:00",
         "start_dst" : "09:00",
         "state" : "beccc0fb-99a7-5452-a3ff-b261ce952f16",
         "timezone" : "Europe/London",
         "uuid" : "fd521d1f-ece4-5198-9d2b-57c2c181a2d9",
         "version" : "1.0.1"
      },
      {
         "country" : "United Kingdom",
         "latitude" : 53.534187,
         "longitude" : -2.104118,
         "mid" : "1O9IxEERuAbfRllb-NhSJUMC3VqE",
         "name" : "Oldham",
         "refreshed" : "2023-09-05T02:31:34+00:00",
         "start" : "09:00",
         "start_dst" : "09:00",
         "state" : "e93ceb16-2a92-5b5d-9c0a-29bf298e15d8",
         "timezone" : "Europe/London",
         "uuid" : "74242204-87f0-5df4-80d4-3f38190dc14b",
         "version" : "1.0.1"
      },
      {
         "country" : "United Kingdom",
         "latitude" : 51.638607,
         "longitude" : 0.066415,
         "mid" : "1Lmz8cozBZF29FMN6dDqnvxEc70Q",
         "name" : "Roding Valley",
         "refreshed" : "2023-09-05T02:31:34+00:00",
         "start" : "09:00",
         "start_dst" : "09:00",
         "state" : "478af073-18b3-5a4f-b75b-c23f3a899bf6",
         "timezone" : "Europe/London",
         "uuid" : "1817c961-c3c1-5855-b16f-1b3d0954d115",
         "version" : "1.0.1"
      },
      {
         "country" : "United Kingdom",
         "latitude" : 52.148125,
         "longitude" : -0.459366,
         "mid" : "1tn_dY7I_HDqoPMdVYe3f2gMpmGc",
         "name" : "Bedford",
         "refreshed" : "2023-09-05T02:31:34+00:00",
         "start" : "09:00",
         "start_dst" : "09:00",
         "state" : "d4c79eb6-f8e4-5ce9-b990-0a1c89761e5c",
         "timezone" : "Europe/London",
         "uuid" : "a0f42803-99ac-5ad8-a504-4e1d1cd9726a",
         "version" : "1.0.1"
      },
      {
         "country" : "United Kingdom",
         "latitude" : 54.21399,
         "longitude" : -3.26996,
         "mid" : "1UBbaKV_69qoSYVMl8Q2noepixmo",
         "name" : "Millom",
         "refreshed" : "2023-09-05T02:31:34+00:00",
         "start" : "09:00",
         "start_dst" : "09:00",
         "state" : "357687ad-1f26-5a0b-8499-de42fdb3c974",
         "timezone" : "Europe/London",
         "uuid" : "1815f9eb-ddf7-5cca-8b8d-3a0d520c6c8e",
         "version" : "1.0.1"
      },
      {
         "country" : "United Kingdom",
         "latitude" : 52.490027,
         "longitude" : -2.134568,
         "mid" : "1AmulfYLkuYpi2mZZb4EfZCiXDpE",
         "name" : "Dudley",
         "refreshed" : "2023-09-05T02:31:34+00:00",
         "start" : "09:00",
         "start_dst" : "09:00",
         "state" : "268a059a-664f-51d5-a9f9-4f5b8f6b22e8",
         "timezone" : "Europe/London",
         "uuid" : "06ce77e6-f247-5a06-9c02-1a11d7b7c6f9",
         "version" : "1.0.1"
      },
      {
         "country" : "United Kingdom",
         "latitude" : 53.022132,
         "longitude" : -1.171188,
         "mid" : "1rLwmN-vegEaLw795yNH1Flkxtx8",
         "name" : "Bestwood Village",
         "refreshed" : "2023-09-05T02:31:34+00:00",
         "start" : "09:00",
         "start_dst" : "09:00",
         "state" : "74adaf75-c618-5b0e-a59a-2c4ec32b2c30",
         "timezone" : "Europe/London",
         "uuid" : "7145d0e2-b5df-5f5e-854e-a6d2f2d0febc",
         "version" : "1.0.1"
      },
      {
         "country" : "United Kingdom",
         "latitude" : 52.05011,
         "longitude" : -0.722984,
         "mid" : "zj7h2Fr7knm4.k8zaxjTYfMj4",
         "name" : "Milton Keynes",
         "refreshed" : "2023-09-05T02:31:34+00:00",
         "start" : "09:00",
         "start_dst" : "09:00",
         "state" : "e34b2906-2918-5943-9bbb-a7ab0434cbb0",
         "timezone" : "Europe/London",
         "uuid" : "3a884921-9319-56f1-a7cf-6b5bf4ece416",
         "version" : "1.0.1"
      },
      {
         "country" : "United Kingdom",
         "latitude" : 53.45713,
         "longitude" : -2.076554,
         "mid" : "16700QhrZ71ddmcWFSJoTZI_wuTw",
         "name" : "Hyde",
         "refreshed" : "2023-09-05T02:31:34+00:00",
         "start" : "09:00",
         "start_dst" : "09:00",
         "state" : "41c727b9-dbba-5223-98f1-72c669180af3",
         "timezone" : "Europe/London",
         "uuid" : "0eeea3dc-fea0-5467-a6af-41a346e06584",
         "version" : "1.0.1"
      },
      {
         "country" : "United Kingdom",
         "latitude" : 53.337865,
         "longitude" : -2.681623,
         "mid" : "1ToJpArv1i3poe2zJYcUCVmCXeHE",
         "name" : "Phoenix",
         "refreshed" : "2023-09-05T02:31:34+00:00",
         "start" : "09:00",
         "start_dst" : "09:00",
         "state" : "0b9afca7-1e7f-55b9-b402-0e2265d7d128",
         "timezone" : "Europe/London",
         "uuid" : "77abb54a-8928-5be6-a912-46506fae3e62",
         "version" : "1.0.1"
      },
      {
         "country" : "United Kingdom",
         "latitude" : 53.411116,
         "longitude" : -2.811654,
         "mid" : "1FyUNsNa9cA73nV6cS92g5OJbwr0",
         "name" : "Knowsley",
         "refreshed" : "2023-09-05T02:31:34+00:00",
         "start" : "09:00",
         "start_dst" : "09:00",
         "state" : "dbdf05ad-fee7-50f4-998f-03932b70207f",
         "timezone" : "Europe/London",
         "uuid" : "8424b463-fd31-52c3-ab72-c599826b350b",
         "version" : "1.0.1"
      },
      {
         "country" : "United Kingdom",
         "latitude" : 52.514658,
         "longitude" : -3.319012,
         "mid" : "1yltXw_moDhuBQsFetaeQYskIQ1lNBcOG",
         "name" : "Newtown",
         "refreshed" : "2023-09-05T02:31:34+00:00",
         "start" : "09:00",
         "start_dst" : "09:00",
         "state" : "f3da3813-a135-5fc7-80f9-6511596dd7fe",
         "timezone" : "Europe/London",
         "uuid" : "060edbc3-1f36-52b9-8ac1-10eaea178f72",
         "version" : "1.0.1"
      },
      {
         "country" : "United Kingdom",
         "latitude" : 51.364717,
         "longitude" : -2.338425,
         "mid" : "16zn5tt4q2tl4tOyFOUD-bP30OnANM5O5",
         "name" : "Bath Skyline",
         "refreshed" : "2023-09-05T02:31:34+00:00",
         "start" : "09:00",
         "start_dst" : "09:00",
         "state" : "f589aaf8-cc33-5057-9ef5-8928f4861f71",
         "timezone" : "Europe/London",
         "uuid" : "b1dcef61-ecd4-5c63-afb4-867d056ff1e4",
         "version" : "1.0.1"
      },
      {
         "country" : "United Kingdom",
         "latitude" : 50.85124,
         "longitude" : -1.849419,
         "mid" : "z1IWCRFkMAYk.kc9HopFXFiJQ",
         "name" : "Moors Valley",
         "refreshed" : "2023-09-05T02:31:34+00:00",
         "start" : "09:00",
         "start_dst" : "09:00",
         "state" : "761d511d-52ba-5514-aef6-4d4e3c78c7dc",
         "timezone" : "Europe/London",
         "uuid" : "0bce9099-851a-55f2-93ed-a8be04f55f1f",
         "version" : "1.0.1"
      },
      {
         "country" : "United Kingdom",
         "latitude" : 53.008339,
         "longitude" : -1.359978,
         "mid" : "15Sez9hfmP0jMUym87sn2-yVEzJ4",
         "name" : "Shipley Country",
         "refreshed" : "2023-09-05T02:31:34+00:00",
         "start" : "09:00",
         "start_dst" : "09:00",
         "state" : "fb0996fc-b05a-5e09-8a69-73e0681b38a1",
         "timezone" : "Europe/London",
         "uuid" : "5948cec4-90a9-5cfc-9893-e15ce0c61e64",
         "version" : "1.0.1"
      },
      {
         "country" : "United Kingdom",
         "latitude" : 51.633087,
         "longitude" : -0.47589,
         "mid" : "1slke02SYellBqhdIZyWj-bFFAb4",
         "name" : "Rickmansworth",
         "refreshed" : "2023-09-05T02:31:34+00:00",
         "start" : "09:00",
         "start_dst" : "09:00",
         "state" : "d7febb8b-a881-5644-8e12-deddb23c5bf4",
         "timezone" : "Europe/London",
         "uuid" : "d59da0f9-cc3e-5410-b3dc-677cceec471d",
         "version" : "1.0.1"
      },
      {
         "country" : "United Kingdom",
         "latitude" : 51.546959,
         "longitude" : -0.102884,
         "mid" : "1totqfUcS00vzY31p0Ne94opz8Sg",
         "name" : "Highbury Fields",
         "refreshed" : "2023-09-05T02:31:34+00:00",
         "start" : "09:00",
         "start_dst" : "09:00",
         "state" : "34f0b9a2-d7c0-5649-b61f-3af5158d9e82",
         "timezone" : "Europe/London",
         "uuid" : "989497c4-86c4-5c45-81ba-b618dfc2a7b6",
         "version" : "1.0.1"
      },
      {
         "country" : "United Kingdom",
         "latitude" : 53.731746,
         "longitude" : -1.873871,
         "mid" : "zj7h2Fr7knm4.kuHTzrLWvww0",
         "name" : "Halifax",
         "refreshed" : "2023-09-05T02:31:34+00:00",
         "start" : "09:00",
         "start_dst" : "09:00",
         "state" : "3e491144-1fd9-5ec6-9b56-620ac89c501e",
         "timezone" : "Europe/London",
         "uuid" : "89104ff4-3713-5ea6-9050-fb77e7f320cd",
         "version" : "1.0.1"
      },
      {
         "country" : "United Kingdom",
         "latitude" : 52.236675,
         "longitude" : 0.161906,
         "mid" : "15QDmOUbUiERDfLhh9fKQm-VCuIlj6OE",
         "name" : "Milton Country",
         "refreshed" : "2023-09-05T02:31:34+00:00",
         "start" : "09:00",
         "start_dst" : "09:00",
         "state" : "d95971c3-140b-5833-8319-a6ae260c4bb1",
         "timezone" : "Europe/London",
         "uuid" : "60ecf313-e08f-5e2b-be2a-1f6b37c936cd",
         "version" : "1.0.1"
      },
      {
         "country" : "United Kingdom",
         "latitude" : 53.814575,
         "longitude" : -1.775102,
         "mid" : "1WwJUIFOG-6Qz4qRUuzme52v8ZPY",
         "name" : "Bradford",
         "refreshed" : "2023-09-05T02:31:34+00:00",
         "start" : "09:00",
         "start_dst" : "09:00",
         "state" : "979b3113-43b3-59fe-9c53-4f0ed462c58b",
         "timezone" : "Europe/London",
         "uuid" : "2209052b-880e-5dee-bff6-ff469701b099",
         "version" : "1.0.1"
      },
      {
         "country" : "United Kingdom",
         "latitude" : 51.299468,
         "longitude" : 1.057002,
         "mid" : "zj7h2Fr7knm4.kayYU6cVg7B8",
         "name" : "Canterbury",
         "refreshed" : "2023-09-05T02:31:34+00:00",
         "start" : "09:00",
         "start_dst" : "09:00",
         "state" : "833d2da6-3c53-57ee-89fe-859ad0c03934",
         "timezone" : "Europe/London",
         "uuid" : "a7241001-6864-5100-8c40-1da8850bfddd",
         "version" : "1.0.1"
      },
      {
         "country" : "United Kingdom",
         "latitude" : 51.356926,
         "longitude" : -0.231078,
         "mid" : "1bKNfjgvEEdUhc5M6qsjykwsxLKs",
         "name" : "Nonsuch",
         "refreshed" : "2023-09-05T02:31:34+00:00",
         "start" : "09:00",
         "start_dst" : "09:00",
         "state" : "683b7bfc-de47-5edb-be82-a987b76c286d",
         "timezone" : "Europe/London",
         "uuid" : "f603ce17-19c0-5d41-a97a-5d6861978e0a",
         "version" : "1.0.1"
      },
      {
         "country" : "United Kingdom",
         "latitude" : 53.46322,
         "longitude" : -2.744088,
         "mid" : "1TsQ6ydap0BvVhafV7O8RcXs1xiI",
         "name" : "St Helens",
         "refreshed" : "2023-09-05T02:31:34+00:00",
         "start" : "09:00",
         "start_dst" : "09:00",
         "state" : "6d5f6ed5-ae19-581e-b8fe-e46d3687cb1d",
         "timezone" : "Europe/London",
         "uuid" : "9040498c-8283-52ef-83ba-7dedbdcee0f1",
         "version" : "1.0.1"
      },
      {
         "country" : "United Kingdom",
         "latitude" : 51.133614,
         "longitude" : 0.284851,
         "mid" : "1qK5mSbhZAXuSK47oCoqsZuPLQpo",
         "name" : "Royal Tunbridge Wells",
         "refreshed" : "2023-09-05T02:31:34+00:00",
         "start" : "09:00",
         "start_dst" : "09:00",
         "state" : "80c6b819-15b0-5802-98cf-b26cedcb80f8",
         "timezone" : "Europe/London",
         "uuid" : "3e119b1a-e4bb-58c7-aace-32edde433c68",
         "version" : "1.0.1"
      },
      {
         "country" : "United Kingdom",
         "latitude" : 51.187513,
         "longitude" : -2.542461,
         "mid" : "1sFNHlfHSc7fLHz866nYn1rg27_4",
         "name" : "Shepton Mallet",
         "refreshed" : "2023-09-05T02:31:34+00:00",
         "start" : "09:00",
         "start_dst" : "09:00",
         "state" : "1da5e0c7-834b-5631-bc82-94b95dacc37d",
         "timezone" : "Europe/London",
         "uuid" : "cf8a8b78-e661-5b98-8bfc-d641b92ddb9e",
         "version" : "1.0.1"
      },
      {
         "country" : "United Kingdom",
         "latitude" : 50.971433,
         "longitude" : -1.374032,
         "mid" : "1aqGTzPLrSUkATtXYsFkqk_55jj8",
         "name" : "Eastleigh",
         "refreshed" : "2023-09-05T02:31:34+00:00",
         "start" : "09:00",
         "start_dst" : "09:00",
         "state" : "88de9807-91f1-5050-a1c4-9c856a8dba0c",
         "timezone" : "Europe/London",
         "uuid" : "a7c6b3a8-be18-518e-9bc7-2fa77772ae9e",
         "version" : "1.0.1"
      },
      {
         "country" : "United Kingdom",
         "latitude" : 52.990156,
         "longitude" : -0.038556,
         "mid" : "z1IWCRFkMAYk.k2sDzbAbNyoc",
         "name" : "Boston",
         "refreshed" : "2023-09-05T02:31:34+00:00",
         "start" : "09:00",
         "start_dst" : "09:00",
         "state" : "48788259-5c9c-5724-b25b-dc578e0a0a04",
         "timezone" : "Europe/London",
         "uuid" : "2634f0c4-6556-5c8b-ae19-043df1a7028e",
         "version" : "1.0.1"
      },
      {
         "country" : "United Kingdom",
         "latitude" : 53.208848,
         "longitude" : -0.560904,
         "mid" : "1C_7eAjdrEuN5vnKN2JCdtvU9_hE",
         "name" : "Lincoln",
         "refreshed" : "2023-09-05T02:31:34+00:00",
         "start" : "09:00",
         "start_dst" : "09:00",
         "state" : "251074c6-3405-5fd0-bbf6-9d01a99690c0",
         "timezone" : "Europe/London",
         "uuid" : "35a80e0c-1fbf-5b69-8b23-31fee2e7b0f1",
         "version" : "1.0.1"
      },
      {
         "country" : "United Kingdom",
         "latitude" : 53.697922,
         "longitude" : -1.325197,
         "mid" : "1fOLdYzga5ywVLJHvrlknsO7D-OM",
         "name" : "Pontefract",
         "refreshed" : "2023-09-05T02:31:34+00:00",
         "start" : "09:00",
         "start_dst" : "09:00",
         "state" : "d5d22925-76c7-5983-979c-5b0e98237441",
         "timezone" : "Europe/London",
         "uuid" : "5f609e56-9c09-5439-8b59-626178f15b37",
         "version" : "1.0.1"
      },
      {
         "country" : "United Kingdom",
         "latitude" : 53.706086,
         "longitude" : -1.778156,
         "mid" : "1Miz6YNyXHbBUJsloPxlRapIQPXk",
         "name" : "Brighouse",
         "refreshed" : "2023-09-05T02:31:34+00:00",
         "start" : "09:00",
         "start_dst" : "09:00",
         "state" : "37baf5e2-ace9-50e8-854a-fc3354846133",
         "timezone" : "Europe/London",
         "uuid" : "a71d9720-40fb-536a-84f3-66aac69becc4",
         "version" : "1.0.1"
      },
      {
         "country" : "United Kingdom",
         "latitude" : 52.754526,
         "longitude" : -1.639681,
         "mid" : "z1IWCRFkMAYk.kamFVlX_JpPQ",
         "name" : "Rosliston",
         "refreshed" : "2023-09-05T02:31:34+00:00",
         "start" : "09:00",
         "start_dst" : "09:00",
         "state" : "5c672ba2-746c-5985-b2ca-b36ed15ed942",
         "timezone" : "Europe/London",
         "uuid" : "e2deb48c-48e3-5ec4-b1cd-991ef56eb7c4",
         "version" : "1.0.1"
      },
      {
         "country" : "United Kingdom",
         "latitude" : 51.419846,
         "longitude" : -0.065703,
         "mid" : "1dDGHXhffrHhX_kvj0TlXyMsTDxaAluf5",
         "name" : "Crystal Palace",
         "refreshed" : "2023-09-05T02:31:34+00:00",
         "start" : "09:00",
         "start_dst" : "09:00",
         "state" : "26f03521-7142-5760-b1b7-d89189e94b30",
         "timezone" : "Europe/London",
         "uuid" : "6d9e6b8a-bc9f-56ed-ab02-8cf08859d190",
         "version" : "1.0.1"
      },
      {
         "country" : "United Kingdom",
         "latitude" : 54.886025,
         "longitude" : -2.963455,
         "mid" : "1a2LcciKN-viYvswy7uK8d2i27_6uxsok",
         "name" : "Carlisle",
         "refreshed" : "2023-09-05T02:31:34+00:00",
         "start" : "09:00",
         "start_dst" : "09:00",
         "state" : "dd3d7edd-17bf-5850-b9b6-2b1c5c8aaa84",
         "timezone" : "Europe/London",
         "uuid" : "0c9dbf92-a3f2-5694-b987-a3a1318f8660",
         "version" : "1.0.1"
      },
      {
         "country" : "United Kingdom",
         "latitude" : 55.048875,
         "longitude" : -1.448736,
         "mid" : "121Ip7AqYRi4ApRjpE_Axnphi5woUyUuB",
         "name" : "Whitley Bay",
         "refreshed" : "2023-09-05T02:31:34+00:00",
         "start" : "09:00",
         "start_dst" : "09:00",
         "state" : "2721ccce-eb5f-52b2-ade9-9491c211fd3c",
         "timezone" : "Europe/London",
         "uuid" : "e603773d-119f-55b7-b0c4-2b9c150f3266",
         "version" : "1.0.1"
      },
      {
         "country" : "United Kingdom",
         "latitude" : 57.205275,
         "longitude" : -3.818635,
         "mid" : "1lNWPz3DCc723T33ODMeRmzQ152g",
         "name" : "Aviemore",
         "refreshed" : "2023-09-05T02:31:34+00:00",
         "start" : "09:30",
         "start_dst" : "09:30",
         "state" : "9fee62ce-df97-529b-9e1b-e375ac91a240",
         "timezone" : "Europe/London",
         "uuid" : "b03baf63-da6d-584a-b026-e199922cd276",
         "version" : "1.0.1"
      },
      {
         "country" : "United Kingdom",
         "latitude" : 55.789631,
         "longitude" : -4.031425,
         "mid" : "12GxJZPZfGQuHGJV_RA-B2F_Ov60",
         "name" : "Strathclyde",
         "refreshed" : "2023-09-05T02:31:34+00:00",
         "start" : "09:30",
         "start_dst" : "09:30",
         "state" : "c71c3423-40b5-52b3-9db0-c6f3a197f410",
         "timezone" : "Europe/London",
         "uuid" : "ede975c5-7bd7-50dc-b91b-95a8a4f526c0",
         "version" : "1.0.1"
      },
      {
         "country" : "United Kingdom",
         "latitude" : 56.483681,
         "longitude" : -3.030896,
         "mid" : "1edrjh02HxQv_eGBmyQ9-rAGSJiE",
         "name" : "Camperdown",
         "refreshed" : "2023-09-05T02:31:34+00:00",
         "start" : "09:30",
         "start_dst" : "09:30",
         "state" : "4b3c3a0e-0d57-5431-a7f8-515d3e840a44",
         "timezone" : "Europe/London",
         "uuid" : "c4809859-a466-5dac-ab8b-605e99ba1ba6",
         "version" : "1.0.1"
      },
      {
         "country" : "United Kingdom",
         "latitude" : 51.207524,
         "longitude" : -3.469591,
         "mid" : "1eAdQjSIJRdZUw9M-Sv4tEHEGtiw",
         "name" : "Minehead",
         "refreshed" : "2023-09-05T02:31:34+00:00",
         "start" : "09:00",
         "start_dst" : "09:00",
         "state" : "2902b8f6-10be-55fa-b30c-f6bae0ca34fb",
         "timezone" : "Europe/London",
         "uuid" : "8551a887-759e-5349-9fd9-22742f4f89a2",
         "version" : "1.0.1"
      },
      {
         "country" : "United Kingdom",
         "latitude" : 52.29362,
         "longitude" : -1.906573,
         "mid" : "1i0UHZ4SIqtcWNXEHdI98nnY8FUI",
         "name" : "Arrow Valley",
         "refreshed" : "2023-09-05T02:31:34+00:00",
         "start" : "09:00",
         "start_dst" : "09:00",
         "state" : "9c8c9a44-f63f-57cc-b1c3-3ec064f6452d",
         "timezone" : "Europe/London",
         "uuid" : "d11d7d7f-0161-5d54-9dd4-ea1b56b95400",
         "version" : "1.0.1"
      },
      {
         "country" : "United Kingdom",
         "latitude" : 54.619299,
         "longitude" : -5.942613,
         "mid" : "1wKUp71-JEybenM48Xt7BsAveGLU",
         "name" : "Waterworks",
         "refreshed" : "2023-09-05T02:31:34+00:00",
         "start" : "09:30",
         "start_dst" : "09:30",
         "state" : "8c6ec042-76b9-51a2-9eb3-0c21022c9109",
         "timezone" : "Europe/London",
         "uuid" : "05e6d706-b145-54f9-adfc-5009abcce976",
         "version" : "1.0.1"
      },
      {
         "country" : "United States",
         "latitude" : 38.89638,
         "longitude" : -77.063956,
         "mid" : "1sfOw5r-8r2PpLj7Auh7tsDiLZiJKlDaa",
         "name" : "Roosevelt Island DC",
         "refreshed" : "2023-09-05T02:31:34+00:00",
         "start" : "09:00",
         "start_dst" : "09:00",
         "state" : "33a74be2-7263-5620-becc-4ef65ade9141",
         "timezone" : "America/New_York",
         "uuid" : "53076078-4eac-576d-8610-998ef2387151",
         "version" : "1.0.1"
      },
      {
         "country" : "United Kingdom",
         "latitude" : 50.794092,
         "longitude" : 0.012418,
         "mid" : "1sSNj7oCbeB6G6k-8xXTkyhpTZgs",
         "name" : "Peacehaven",
         "refreshed" : "2023-09-05T02:31:34+00:00",
         "start" : "09:00",
         "start_dst" : "09:00",
         "state" : "b8769772-4a30-5f6a-a942-b3f16626078d",
         "timezone" : "Europe/London",
         "uuid" : "af362dd7-fe10-5af7-9674-e0b3b5adb4b1",
         "version" : "1.0.1"
      },
      {
         "country" : "United Kingdom",
         "latitude" : 50.73362,
         "longitude" : -1.832732,
         "mid" : "17OnGC_67SK412EJy7viPGVRKopzjTNs",
         "name" : "Bournemouth",
         "refreshed" : "2023-09-05T02:31:34+00:00",
         "start" : "09:00",
         "start_dst" : "09:00",
         "state" : "67bc0837-6c59-57df-b5b1-dd14f0ebf0a3",
         "timezone" : "Europe/London",
         "uuid" : "fedbdcbd-22a1-52db-bf12-9250a0de2446",
         "version" : "1.0.1"
      },
      {
         "country" : "United Kingdom",
         "latitude" : 53.174034,
         "longitude" : -1.183844,
         "mid" : "12D7S--6j9IKbgb8PkQEwb4kGeoA",
         "name" : "Mansfield",
         "refreshed" : "2023-09-05T02:31:34+00:00",
         "start" : "09:00",
         "start_dst" : "09:00",
         "state" : "61a82c86-bd0a-59f1-8218-f84fa6ca5b99",
         "timezone" : "Europe/London",
         "uuid" : "ecbf72d8-fcfd-54de-8fe1-3523f6b6b812",
         "version" : "1.0.1"
      },
      {
         "country" : "United Kingdom",
         "latitude" : 52.406754,
         "longitude" : -1.764593,
         "mid" : "1dclT-dSEwNwrOrRxjglJLRmvxRM",
         "name" : "Brueton",
         "refreshed" : "2023-09-05T02:31:34+00:00",
         "start" : "09:00",
         "start_dst" : "09:00",
         "state" : "d224067f-1409-5118-85f0-f75273544014",
         "timezone" : "Europe/London",
         "uuid" : "6dc35329-dd4a-5ed9-9f3a-dab30bd964b6",
         "version" : "1.0.1"
      },
      {
         "country" : "United Kingdom",
         "latitude" : 55.643935,
         "longitude" : -4.669662,
         "mid" : "1-87XI4HDsIDcfb-7-hTdxR8I07c",
         "name" : "Eglinton",
         "refreshed" : "2023-09-05T02:31:34+00:00",
         "start" : "09:30",
         "start_dst" : "09:30",
         "state" : "1faf17bc-c194-5061-8b7b-b065255f36bf",
         "timezone" : "Europe/London",
         "uuid" : "dcf3fdff-2842-5ff5-a6fd-9fbca80d2186",
         "version" : "1.0.1"
      },
      {
         "country" : "Ireland",
         "latitude" : 53.661214,
         "longitude" : -6.693934,
         "mid" : "1DQCv7eLS9RPZ8zpzl6d3sbhF_xU",
         "name" : "Navan",
         "refreshed" : "2023-09-05T02:31:34+00:00",
         "start" : "09:30",
         "start_dst" : "09:30",
         "state" : "3cc4c96f-1985-533a-ad91-c10a0ea6385d",
         "timezone" : "Europe/Dublin",
         "uuid" : "09b9b166-9b6f-54a2-b755-da7371941ded",
         "version" : "1.0.1"
      },
      {
         "country" : "United Kingdom",
         "latitude" : 52.248143,
         "longitude" : -0.884445,
         "mid" : "19e5XYRDYreb72L1BU6CfvtsdLUk",
         "name" : "Northampton",
         "refreshed" : "2023-09-05T02:31:34+00:00",
         "start" : "09:00",
         "start_dst" : "09:00",
         "state" : "7206bc07-183e-5ba4-879a-ac2ab09e6d3d",
         "timezone" : "Europe/London",
         "uuid" : "19b2ffb1-9337-5542-bab3-0dd5f883a623",
         "version" : "1.0.1"
      },
      {
         "country" : "United Kingdom",
         "latitude" : 52.935408,
         "longitude" : -1.504769,
         "mid" : "zj7h2Fr7knm4.knGR89ko8jhQ",
         "name" : "Markeaton",
         "refreshed" : "2023-09-05T02:31:34+00:00",
         "start" : "09:00",
         "start_dst" : "09:00",
         "state" : "066a3f43-bfd4-561f-b953-4ac9b1e90907",
         "timezone" : "Europe/London",
         "uuid" : "aa1613f3-ef33-5663-b5fa-e33672be0a20",
         "version" : "1.0.1"
      },
      {
         "country" : "United Kingdom",
         "latitude" : 51.56749,
         "longitude" : 0.07198,
         "mid" : "18lCo8hu6_ZCsxE7KgAs1Kx5nG_U",
         "name" : "Valentines",
         "refreshed" : "2023-09-05T02:31:34+00:00",
         "start" : "09:00",
         "start_dst" : "09:00",
         "state" : "ce26d9b6-d957-5d46-96b8-83a72045d6ae",
         "timezone" : "Europe/London",
         "uuid" : "ac189397-9cad-5920-9cda-cf450e878abc",
         "version" : "1.0.1"
      },
      {
         "country" : "United Kingdom",
         "latitude" : 51.637718,
         "longitude" : -0.153744,
         "mid" : "1S-WNKY0WeNTR6F2p3cQMdk7R7DU",
         "name" : "Oak Hill",
         "refreshed" : "2023-09-05T02:31:34+00:00",
         "start" : "09:00",
         "start_dst" : "09:00",
         "state" : "ac7e245c-1427-5a69-9ef0-2f71010de95c",
         "timezone" : "Europe/London",
         "uuid" : "adbcead1-a8a5-5a7f-9f4f-ef14102c4ff6",
         "version" : "1.0.1"
      },
      {
         "country" : "United Kingdom",
         "latitude" : 55.956525,
         "longitude" : -4.767348,
         "mid" : "1_KFtkn6XXkhK1S9MGcPERbm98cA",
         "name" : "Greenock",
         "refreshed" : "2023-09-05T02:31:34+00:00",
         "start" : "09:30",
         "start_dst" : "09:30",
         "state" : "e97ac7e6-aa05-5710-8cef-ea5b2319fbda",
         "timezone" : "Europe/London",
         "uuid" : "f7558f5f-8253-5fcf-830b-7d57aa816523",
         "version" : "1.0.1"
      },
      {
         "country" : "United Kingdom",
         "latitude" : 51.89167,
         "longitude" : 0.902724,
         "mid" : "1HoT5UvqQ-_tJEBlHOnsekrdjtkQ",
         "name" : "Colchester Castle",
         "refreshed" : "2023-09-05T02:31:34+00:00",
         "start" : "09:00",
         "start_dst" : "09:00",
         "state" : "7d0cc1ac-be88-5aec-984d-6dfd15600a32",
         "timezone" : "Europe/London",
         "uuid" : "caec42ef-33e9-5caf-b045-cf9209899114",
         "version" : "1.0.1"
      },
      {
         "country" : "United Kingdom",
         "latitude" : 52.452637,
         "longitude" : -1.89997,
         "mid" : "1Yue543Z8sSIoZjt8qBraEEKTxs4",
         "name" : "Cannon Hill",
         "refreshed" : "2023-09-05T02:31:34+00:00",
         "start" : "09:00",
         "start_dst" : "09:00",
         "state" : "e782c7da-6d62-500a-8cad-7283d9dca966",
         "timezone" : "Europe/London",
         "uuid" : "bc8ce3f5-78da-56bb-a5d2-ed21e5096050",
         "version" : "1.0.1"
      },
      {
         "country" : "United Kingdom",
         "latitude" : 51.364807,
         "longitude" : -0.079973,
         "mid" : "1jvgy_R9UqFiQtVFSC5dHgvOXI0Q",
         "name" : "Lloyd",
         "refreshed" : "2023-09-05T02:31:34+00:00",
         "start" : "09:00",
         "start_dst" : "09:00",
         "state" : "42008e40-d3e1-5463-9236-7eafd501b64f",
         "timezone" : "Europe/London",
         "uuid" : "4eb681da-a476-5966-bfa1-a5da76a5a6a9",
         "version" : "1.0.1"
      },
      {
         "country" : "United Kingdom",
         "latitude" : 51.499405,
         "longitude" : -0.292253,
         "mid" : "1Yt1gGBdevShVBJrw--DEGp-aVRw",
         "name" : "Gunnersbury",
         "refreshed" : "2023-09-05T02:31:34+00:00",
         "start" : "09:00",
         "start_dst" : "09:00",
         "state" : "d8487bc1-c2cc-5add-97ae-49b652c8c033",
         "timezone" : "Europe/London",
         "uuid" : "0e44cd1e-46dd-5b32-a516-7b8443014c1e",
         "version" : "1.0.1"
      },
      {
         "country" : "United Kingdom",
         "latitude" : 51.627409,
         "longitude" : 0.810923,
         "mid" : "1O-yLmyEhhafDC_i8gBzegMj8aHw",
         "name" : "Burnham-on-Crouch",
         "refreshed" : "2023-09-05T02:31:34+00:00",
         "start" : "09:00",
         "start_dst" : "09:00",
         "state" : "1884b5f3-593f-57c6-98b1-399b1946ccde",
         "timezone" : "Europe/London",
         "uuid" : "edf62ac8-7c11-5c17-95c5-c98f52f3105d",
         "version" : "1.0.1"
      },
      {
         "country" : "Australia",
         "latitude" : -27.471134,
         "longitude" : 153.051636,
         "mid" : "1Om06X9TE4AA4NI4r79yADnjMp90",
         "name" : "New Farm",
         "refreshed" : "2023-09-05T02:31:34+00:00",
         "start" : "07:00",
         "start_dst" : "07:00",
         "state" : "3cd59bd1-6115-5d6c-b7a5-3a729a98ebd8",
         "timezone" : "Australia/Brisbane",
         "uuid" : "e26c310c-aa40-5f92-abeb-7c9a7ab1a8f3",
         "version" : "1.0.1"
      },
      {
         "country" : "United Kingdom",
         "latitude" : 51.378426,
         "longitude" : -1.292267,
         "mid" : "1N3X8gnz6bTaNwiU0-DfKS6Zjgjk",
         "name" : "Newbury",
         "refreshed" : "2023-09-05T02:31:34+00:00",
         "start" : "09:00",
         "start_dst" : "09:00",
         "state" : "b12a5ce0-b8a8-574a-a205-a91c487479c5",
         "timezone" : "Europe/London",
         "uuid" : "eec72df6-7ab0-5ec8-a9b0-c4f1f159b569",
         "version" : "1.0.1"
      },
      {
         "country" : "United Kingdom",
         "latitude" : 53.384221,
         "longitude" : -2.574685,
         "mid" : "1sXXaedo1C4Ow2nv_j78ctdi0u6I",
         "name" : "Warrington",
         "refreshed" : "2023-09-05T02:31:34+00:00",
         "start" : "09:00",
         "start_dst" : "09:00",
         "state" : "27502ec1-0a02-5233-8681-0dcf6e072657",
         "timezone" : "Europe/London",
         "uuid" : "35db7d57-af4b-5b0c-9196-0f07b637b046",
         "version" : "1.0.1"
      },
      {
         "country" : "United Kingdom",
         "latitude" : 56.969993,
         "longitude" : -2.212502,
         "mid" : "1NtCeE0RHhiQrX8Y9N5DA0mtaV7s",
         "name" : "Stonehaven",
         "refreshed" : "2023-09-05T02:31:34+00:00",
         "start" : "09:30",
         "start_dst" : "09:30",
         "state" : "60a545d1-2916-54fc-933e-d953f1e7db33",
         "timezone" : "Europe/London",
         "uuid" : "b918c41a-3c2f-503c-ae40-f6797e6aa2ee",
         "version" : "1.0.1"
      },
      {
         "country" : "United Kingdom",
         "latitude" : 52.186989,
         "longitude" : -2.178726,
         "mid" : "1X4n684UVahl8nZrIrRLc4Uf-nwJFPc-y",
         "name" : "Worcester",
         "refreshed" : "2023-09-05T02:31:34+00:00",
         "start" : "09:00",
         "start_dst" : "09:00",
         "state" : "0f27704e-69f5-50e7-80a6-339bb867e5b5",
         "timezone" : "Europe/London",
         "uuid" : "9d9311e2-46da-5b21-8d5d-b9fecfa5e64e",
         "version" : "1.0.1"
      },
      {
         "country" : "United Kingdom",
         "latitude" : 51.365295,
         "longitude" : 1.041942,
         "mid" : "17Dr7aAba6ETOIc0rlnomfjGUZSk",
         "name" : "Whitstable",
         "refreshed" : "2023-09-05T02:31:34+00:00",
         "start" : "09:00",
         "start_dst" : "09:00",
         "state" : "54e7e665-5f36-578b-b950-a1b6f7600739",
         "timezone" : "Europe/London",
         "uuid" : "c72b4261-4d70-5c33-ba00-4b666eed99e8",
         "version" : "1.0.1"
      },
      {
         "country" : "United Kingdom",
         "latitude" : 51.821422,
         "longitude" : -0.060813,
         "mid" : "1fodTkUMj21Cv3ofz6zqKqawZARU",
         "name" : "Westmill",
         "refreshed" : "2023-09-05T02:31:34+00:00",
         "start" : "09:00",
         "start_dst" : "09:00",
         "state" : "6f8f029c-b642-518c-9ddf-597b0659071b",
         "timezone" : "Europe/London",
         "uuid" : "21682077-a8dc-5c92-aede-a504d22b61c3",
         "version" : "1.0.1"
      },
      {
         "country" : "Australia",
         "latitude" : -27.972706,
         "longitude" : 153.428879,
         "mid" : "zj7h2Fr7knm4.knFuwReiEans",
         "name" : "Main Beach",
         "refreshed" : "2023-09-05T02:31:34+00:00",
         "start" : "07:00",
         "start_dst" : "07:00",
         "state" : "8a09edfc-f727-5619-b499-4a76a76da92f",
         "timezone" : "Australia/Brisbane",
         "uuid" : "7d7a58ad-8c53-5757-8e4f-9b9b2e5a132e",
         "version" : "1.0.1"
      },
      {
         "country" : "United Kingdom",
         "latitude" : 55.99543,
         "longitude" : -3.766712,
         "mid" : "1YJDgKNOGJYSfxw64ZMcFDhxvc2U",
         "name" : "Falkirk",
         "refreshed" : "2023-09-05T02:31:34+00:00",
         "start" : "09:30",
         "start_dst" : "09:30",
         "state" : "19538860-ac46-5c07-af2d-00ac0f4b802b",
         "timezone" : "Europe/London",
         "uuid" : "d0e929e8-e56d-5b16-9e17-92c2cf3f1db1",
         "version" : "1.0.1"
      },
      {
         "country" : "United Kingdom",
         "latitude" : 51.73896,
         "longitude" : -3.375658,
         "mid" : "1Aw6imyj_tzqiZRqGXVrBjj3tGjc",
         "name" : "Merthyr",
         "refreshed" : "2023-09-05T02:31:34+00:00",
         "start" : "09:00",
         "start_dst" : "09:00",
         "state" : "183cb7c1-7d6a-5cb9-8d30-3540fd586fe9",
         "timezone" : "Europe/London",
         "uuid" : "e4d3062d-36c7-5f76-8c4d-41dfb29e675e",
         "version" : "1.0.1"
      },
      {
         "country" : "United Kingdom",
         "latitude" : 51.390248,
         "longitude" : -0.776844,
         "mid" : "1vcF0cEr2jrUkWLBG128yNO-FU2Q",
         "name" : "Bracknell",
         "refreshed" : "2023-09-05T02:31:34+00:00",
         "start" : "09:00",
         "start_dst" : "09:00",
         "state" : "acee8e32-9ef6-53c2-920e-e7b00e20a26c",
         "timezone" : "Europe/London",
         "uuid" : "47c94ffd-7e88-5d82-85f0-51e9037bbf8f",
         "version" : "1.0.1"
      },
      {
         "country" : "United Kingdom",
         "latitude" : 53.131155,
         "longitude" : -1.295214,
         "mid" : "1q38PGnwWAeyMJBVsjNkeiVbFgoCgHjI",
         "name" : "Brierley Forest",
         "refreshed" : "2023-09-05T02:31:34+00:00",
         "start" : "09:00",
         "start_dst" : "09:00",
         "state" : "b95f9c67-d47c-5647-b860-6048a956c1be",
         "timezone" : "Europe/London",
         "uuid" : "01806a4a-554c-5813-8e6c-2abb675d49d8",
         "version" : "1.0.1"
      },
      {
         "country" : "United Kingdom",
         "latitude" : 53.992428,
         "longitude" : -1.521435,
         "mid" : "1pt07z05kDVUGz7-IylcbxQMzKK4",
         "name" : "Harrogate",
         "refreshed" : "2023-09-05T02:31:34+00:00",
         "start" : "09:00",
         "start_dst" : "09:00",
         "state" : "ed98768a-129c-5508-a110-4564cb5bbfdb",
         "timezone" : "Europe/London",
         "uuid" : "2b1f62c6-13ed-5746-9b40-670d194a01b6",
         "version" : "1.0.1"
      },
      {
         "country" : "United Kingdom",
         "latitude" : 56.726297,
         "longitude" : -2.455223,
         "mid" : "1t5jIb5e6MALg3wn9ewIeIGhxvyw",
         "name" : "Montrose",
         "refreshed" : "2023-09-05T02:31:34+00:00",
         "start" : "09:30",
         "start_dst" : "09:30",
         "state" : "00be4678-3504-5723-84a2-2321ee6904ab",
         "timezone" : "Europe/London",
         "uuid" : "853800ca-8690-54b4-8f4d-d20cc1201e3f",
         "version" : "1.0.1"
      },
      {
         "country" : "United Kingdom",
         "latitude" : 50.747747,
         "longitude" : -1.54548,
         "mid" : "1pwhzaMHRogZbLpV44Gg4kH5NvrY",
         "name" : "Lymington Woodside",
         "refreshed" : "2023-09-05T02:31:34+00:00",
         "start" : "09:00",
         "start_dst" : "09:00",
         "state" : "57a70198-a8d0-5a51-ba5b-d3789f86d8ec",
         "timezone" : "Europe/London",
         "uuid" : "5a6d098b-6620-5c7a-bda6-c258904a18ba",
         "version" : "1.0.1"
      },
      {
         "country" : "United Kingdom",
         "latitude" : 51.396111,
         "longitude" : -0.059908,
         "mid" : "1GBkG5drZiM1d4q7oapySj0zUE-s",
         "name" : "South Norwood",
         "refreshed" : "2023-09-05T02:31:34+00:00",
         "start" : "09:00",
         "start_dst" : "09:00",
         "state" : "efeca06f-80e6-5f49-a188-104128a537ec",
         "timezone" : "Europe/London",
         "uuid" : "26ebd5bf-7113-5bd5-a07a-65fb823fe79c",
         "version" : "1.0.1"
      },
      {
         "country" : "United States",
         "latitude" : 40.767616,
         "longitude" : -82.538434,
         "mid" : "1dWNo0pAk6hwOK2009zVmjQLBRr4",
         "name" : "Mansfield OH",
         "refreshed" : "2023-09-05T02:31:34+00:00",
         "start" : "08:00",
         "start_dst" : "08:00",
         "state" : "0a7c00f7-3834-5e96-9230-b3550c747886",
         "timezone" : "America/New_York",
         "uuid" : "cad82543-1007-5294-9f67-e262c8959c97",
         "version" : "1.0.1"
      },
      {
         "country" : "United Kingdom",
         "latitude" : 53.656276,
         "longitude" : -2.985341,
         "mid" : "1ngeRMq3F3s2BbLJztR0Nq4Azd5A",
         "name" : "Southport",
         "refreshed" : "2023-09-05T02:31:34+00:00",
         "start" : "09:00",
         "start_dst" : "09:00",
         "state" : "7fc16166-2636-5efa-94fd-334528e539b5",
         "timezone" : "Europe/London",
         "uuid" : "e5d4fbd5-8cd2-5550-be79-f893b643198a",
         "version" : "1.0.1"
      },
      {
         "country" : "United Kingdom",
         "latitude" : 52.588775,
         "longitude" : -2.140875,
         "mid" : "1pO1KJR6vw-vZNKzRIHwrjuecxXE",
         "name" : "Wolverhampton",
         "refreshed" : "2023-09-05T02:31:34+00:00",
         "start" : "09:00",
         "start_dst" : "09:00",
         "state" : "19265d53-5d92-576f-ac52-a65765d789c4",
         "timezone" : "Europe/London",
         "uuid" : "f2bdece5-edf8-5038-a3e1-6a1615a293ec",
         "version" : "1.0.1"
      },
      {
         "country" : "United Kingdom",
         "latitude" : 51.878304,
         "longitude" : -2.231707,
         "mid" : "z1IWCRFkMAYk.kiPvuaQDSSXg",
         "name" : "Gloucester North",
         "refreshed" : "2023-09-05T02:31:34+00:00",
         "start" : "09:00",
         "start_dst" : "09:00",
         "state" : "24fb6eee-d324-5142-8fb0-22e97629f017",
         "timezone" : "Europe/London",
         "uuid" : "0a63ee9d-038c-50df-8abc-1021b24077a2",
         "version" : "1.0.1"
      },
      {
         "country" : "United Kingdom",
         "latitude" : 56.40515,
         "longitude" : -3.435422,
         "mid" : "1ZTyGGcpeM1rnf0LVFq-SxB0mf_s",
         "name" : "Perth",
         "refreshed" : "2023-09-05T02:31:34+00:00",
         "start" : "09:30",
         "start_dst" : "09:30",
         "state" : "ea3d2b25-516a-513b-a52e-6c263d937d1a",
         "timezone" : "Europe/London",
         "uuid" : "ce9a40af-0631-5ee5-b3f1-67e8d16c1825",
         "version" : "1.0.1"
      },
      {
         "country" : "United Kingdom",
         "latitude" : 52.201513,
         "longitude" : -2.231964,
         "mid" : "1tRYESxXy4PPirLcPiOSo2oeVDsk",
         "name" : "Worcester Pitchcroft",
         "refreshed" : "2023-09-05T02:31:34+00:00",
         "start" : "09:00",
         "start_dst" : "09:00",
         "state" : "0a075d87-eff8-5e56-831b-6ff26c0c3092",
         "timezone" : "Europe/London",
         "uuid" : "61ac5f6c-7778-541e-a066-cd2e7e3b8024",
         "version" : "1.0.1"
      },
      {
         "country" : "United Kingdom",
         "latitude" : 51.559479,
         "longitude" : -3.030939,
         "mid" : "1smNRB_5wCSmchC6TnnuxMdie6tY",
         "name" : "Newport",
         "refreshed" : "2023-09-05T02:31:34+00:00",
         "start" : "09:00",
         "start_dst" : "09:00",
         "state" : "67c20e13-3845-5a39-a669-2d2af66d0a8b",
         "timezone" : "Europe/London",
         "uuid" : "3430b1f9-07e8-55df-b10e-0f93894653c4",
         "version" : "1.0.1"
      },
      {
         "country" : "United Kingdom",
         "latitude" : 53.160781,
         "longitude" : -2.229795,
         "mid" : "1nuhVpE-VxcEiiSdHskB0h_jWFsc",
         "name" : "Congleton",
         "refreshed" : "2023-09-05T02:31:34+00:00",
         "start" : "09:00",
         "start_dst" : "09:00",
         "state" : "41d05995-18ef-57b4-a599-1f7aeb8a2ee4",
         "timezone" : "Europe/London",
         "uuid" : "f0730b89-eff2-5573-b0e0-8dee0a2dd5d5",
         "version" : "1.0.1"
      },
      {
         "country" : "United Kingdom",
         "latitude" : 51.56078,
         "longitude" : 0.014977,
         "mid" : "19CcMu8YMN4vGcE_ATWvgpWIrRBk",
         "name" : "Wanstead Flats",
         "refreshed" : "2023-09-05T02:31:34+00:00",
         "start" : "09:00",
         "start_dst" : "09:00",
         "state" : "7d5ee91e-19ba-548a-895b-ceae7487f1ad",
         "timezone" : "Europe/London",
         "uuid" : "c57a9ba8-1a38-5a9d-8072-5cd282f8539a",
         "version" : "1.0.1"
      },
      {
         "country" : "United Kingdom",
         "latitude" : 54.767605,
         "longitude" : -1.558852,
         "mid" : "1H90RRzKOl2LJiPRFbkg1CghUbXU",
         "name" : "Durham",
         "refreshed" : "2023-09-05T02:31:34+00:00",
         "start" : "09:00",
         "start_dst" : "09:00",
         "state" : "420f7ac4-bbdf-5334-accd-c7d39e3288e8",
         "timezone" : "Europe/London",
         "uuid" : "ca475bc7-637c-5f4c-97d3-3994e648a8ea",
         "version" : "1.0.1"
      },
      {
         "country" : "United Kingdom",
         "latitude" : 50.720348,
         "longitude" : -1.968876,
         "mid" : "1SL5LMyOM-mZrjki420LPd98c1tYzv2-E",
         "name" : "Poole",
         "refreshed" : "2023-09-05T02:31:34+00:00",
         "start" : "09:00",
         "start_dst" : "09:00",
         "state" : "f43c1074-cce2-56c3-bce7-fc15af2e354e",
         "timezone" : "Europe/London",
         "uuid" : "b7f9adaa-04fc-59bb-9be3-33545fb891c8",
         "version" : "1.0.1"
      },
      {
         "country" : "United Kingdom",
         "latitude" : 51.531978,
         "longitude" : -0.919288,
         "mid" : "1yaH9yxRbvva8g-2ZqtWNk35uSFpNmHRs",
         "name" : "Henley-on-Thames",
         "refreshed" : "2023-09-05T02:31:34+00:00",
         "start" : "09:00",
         "start_dst" : "09:00",
         "state" : "be3d6434-2e89-5b56-ae76-95452c2259ff",
         "timezone" : "Europe/London",
         "uuid" : "52688798-9f66-5dc4-9ece-1b0bab9b23d3",
         "version" : "1.0.1"
      },
      {
         "country" : "United Kingdom",
         "latitude" : 55.006966,
         "longitude" : -7.318933,
         "mid" : "1ndEQcSgx4FiklWa7nQuZ1EYZkfA",
         "name" : "Derry City",
         "refreshed" : "2023-09-05T02:31:34+00:00",
         "start" : "09:30",
         "start_dst" : "09:30",
         "state" : "9a0a0aa0-67b7-5230-b3f8-fb4e8c067ce2",
         "timezone" : "Europe/London",
         "uuid" : "d0ab4b6e-5078-5324-8018-f0d65bd8f43d",
         "version" : "1.0.1"
      },
      {
         "country" : "United Kingdom",
         "latitude" : 50.792835,
         "longitude" : -3.455007,
         "mid" : "1BdTyHly-gV06Datfwb9_MnYEexY",
         "name" : "Killerton",
         "refreshed" : "2023-09-05T02:31:34+00:00",
         "start" : "09:00",
         "start_dst" : "09:00",
         "state" : "25e5fb64-18ed-5ca5-a2c5-320b9aa94091",
         "timezone" : "Europe/London",
         "uuid" : "634d0b07-5f2d-551c-a037-91e9ddfcffe6",
         "version" : "1.0.1"
      },
      {
         "country" : "United Kingdom",
         "latitude" : 53.544369,
         "longitude" : -1.486115,
         "mid" : "1ceO1LacSfrlEXFncjcVktOUDVGo",
         "name" : "Barnsley",
         "refreshed" : "2023-09-05T02:31:34+00:00",
         "start" : "09:00",
         "start_dst" : "09:00",
         "state" : "41113b7c-61f8-5c9c-90d6-6dff09fc7078",
         "timezone" : "Europe/London",
         "uuid" : "987bf4b8-b4f7-5670-96c6-4d177c976970",
         "version" : "1.0.1"
      },
      {
         "country" : "United Kingdom",
         "latitude" : 51.318485,
         "longitude" : -0.079549,
         "mid" : "1MNlkn0NO-8BVkWaKDWISSu1l1jp_xWoQ",
         "name" : "Riddlesdown",
         "refreshed" : "2023-09-05T02:31:34+00:00",
         "start" : "09:00",
         "start_dst" : "09:00",
         "state" : "73433a3a-2b2a-57fd-a1a9-297d6136d7c6",
         "timezone" : "Europe/London",
         "uuid" : "d4bc0959-368b-56b5-a493-7698fbd8a420",
         "version" : "1.0.1"
      },
      {
         "country" : "United Kingdom",
         "latitude" : 53.207796,
         "longitude" : -2.902368,
         "mid" : "12eQ1ID9r-r4d55hn6GiSDMnS9WdWzKa0",
         "name" : "Chester",
         "refreshed" : "2023-09-05T02:31:34+00:00",
         "start" : "09:00",
         "start_dst" : "09:00",
         "state" : "46a85a96-e88a-5f29-9fdb-497cead2549e",
         "timezone" : "Europe/London",
         "uuid" : "0840c6b4-45bc-5cdd-9074-72377f9a371d",
         "version" : "1.0.1"
      },
      {
         "country" : "United Kingdom",
         "latitude" : 52.384226,
         "longitude" : -0.710653,
         "mid" : "1eHJnjfyHMEPB3UMMITPJQIPRZWs",
         "name" : "Kettering",
         "refreshed" : "2023-09-05T02:31:34+00:00",
         "start" : "09:00",
         "start_dst" : "09:00",
         "state" : "9cb779ee-3c52-5eec-b30a-2dc1387586bb",
         "timezone" : "Europe/London",
         "uuid" : "ef89ae4b-8db9-5994-898f-2e5b95321d1e",
         "version" : "1.0.1"
      },
      {
         "country" : "United Kingdom",
         "latitude" : 52.224887,
         "longitude" : 0.730183,
         "mid" : "1Rnw3Nlk9bbOn-zs1DcU01b8V8HA",
         "name" : "Bury St Edmunds",
         "refreshed" : "2023-09-05T02:31:34+00:00",
         "start" : "09:00",
         "start_dst" : "09:00",
         "state" : "236761d8-443a-5c36-bf6d-d74042d4756e",
         "timezone" : "Europe/London",
         "uuid" : "2a738af6-709f-519f-b7ca-4da3732f980e",
         "version" : "1.0.1"
      },
      {
         "country" : "United Kingdom",
         "latitude" : 52.474487,
         "longitude" : -0.924979,
         "mid" : "z1IWCRFkMAYk.ktdvNMExBS7w",
         "name" : "Market Harborough",
         "refreshed" : "2023-09-05T02:31:34+00:00",
         "start" : "09:00",
         "start_dst" : "09:00",
         "state" : "f304cb0a-e912-5031-b6e6-905ffce943b8",
         "timezone" : "Europe/London",
         "uuid" : "9a87407c-2606-5fd4-bb0a-7b742a0bd008",
         "version" : "1.0.1"
      },
      {
         "country" : "United Kingdom",
         "latitude" : 53.750032,
         "longitude" : -1.473456,
         "mid" : "1UZA8PWkTfaSZFIwqPgIETsUHRLk",
         "name" : "Rothwell",
         "refreshed" : "2023-09-05T02:31:34+00:00",
         "start" : "09:00",
         "start_dst" : "09:00",
         "state" : "34e972fc-0d37-5d7f-9866-9d7918cb775a",
         "timezone" : "Europe/London",
         "uuid" : "0a65b13c-c7d8-5534-85e8-b3aa48d2bd8d",
         "version" : "1.0.1"
      },
      {
         "country" : "United Kingdom",
         "latitude" : 54.944733,
         "longitude" : -1.602094,
         "mid" : "1n753V_JF8vWAorq6LGLy9mZ-gbM",
         "name" : "Gateshead",
         "refreshed" : "2023-09-05T02:31:34+00:00",
         "start" : "09:00",
         "start_dst" : "09:00",
         "state" : "9e37a768-cc5c-593f-911c-b12da0fa3d8e",
         "timezone" : "Europe/London",
         "uuid" : "8acf8f6e-916a-594b-83b1-c0c84de38067",
         "version" : "1.0.1"
      },
      {
         "country" : "United Kingdom",
         "latitude" : 56.317711,
         "longitude" : -2.838234,
         "mid" : "1-YpiYyHgJE2-s0tDmjxGgkH-0GQ",
         "name" : "St Andrews",
         "refreshed" : "2023-09-05T02:31:34+00:00",
         "start" : "09:30",
         "start_dst" : "09:30",
         "state" : "bf89ae3d-b16e-5cbe-bf8a-dc761eada538",
         "timezone" : "Europe/London",
         "uuid" : "b8cd4a5c-dbb0-5fe1-b8fd-4f56dd38a804",
         "version" : "1.0.1"
      },
      {
         "country" : "United Kingdom",
         "latitude" : 54.165828,
         "longitude" : -4.481846,
         "mid" : "1eqTzGURuWSV0iXzivbIM-Fq_234",
         "name" : "Nobles",
         "refreshed" : "2023-09-05T02:31:34+00:00",
         "start" : "09:00",
         "start_dst" : "09:00",
         "state" : "627fcce7-3516-5048-9cdb-45c9c8528b95",
         "timezone" : "Europe/Isle_of_Man",
         "uuid" : "4ea16df6-25a3-5a29-8553-e9a7ce73c558",
         "version" : "1.0.1"
      },
      {
         "country" : "United Kingdom",
         "latitude" : 52.58725,
         "longitude" : -1.966252,
         "mid" : "zj7h2Fr7knm4.k8dO2QB66jTI",
         "name" : "Walsall Arboretum",
         "refreshed" : "2023-09-05T02:31:34+00:00",
         "start" : "09:00",
         "start_dst" : "09:00",
         "state" : "08be2d1e-f39d-5fb4-9a9d-3553f2371b71",
         "timezone" : "Europe/London",
         "uuid" : "8cd43a9b-1096-50cf-adb9-fc002ada5138",
         "version" : "1.0.1"
      },
      {
         "country" : "United Kingdom",
         "latitude" : 53.491608,
         "longitude" : -2.542745,
         "mid" : "1fc4OxZolBariJv1Ho_NKbCLC6E8",
         "name" : "Pennington Flash",
         "refreshed" : "2023-09-05T02:31:34+00:00",
         "start" : "09:00",
         "start_dst" : "09:00",
         "state" : "f040dde2-e652-5366-afb4-fc8c42ecdfea",
         "timezone" : "Europe/London",
         "uuid" : "0a679c9a-da63-5008-83c7-0451627e83f8",
         "version" : "1.0.1"
      },
      {
         "country" : "United Kingdom",
         "latitude" : 51.61887,
         "longitude" : -0.066953,
         "mid" : "1JIsx-rB0__rxp-b_Q0paTfIH1DA",
         "name" : "Pymmes",
         "refreshed" : "2023-09-05T02:31:34+00:00",
         "start" : "09:00",
         "start_dst" : "09:00",
         "state" : "2b7ce89c-3fbf-5a25-91f4-39b1fc68a83b",
         "timezone" : "Europe/London",
         "uuid" : "7b2b57f9-9fa1-5605-9734-315449ae2f92",
         "version" : "1.0.1"
      },
      {
         "country" : "United Kingdom",
         "latitude" : 53.386456,
         "longitude" : -2.956975,
         "mid" : "zj7h2Fr7knm4.knf4YS_lskhI",
         "name" : "Princes",
         "refreshed" : "2023-09-05T02:31:34+00:00",
         "start" : "09:00",
         "start_dst" : "09:00",
         "state" : "9550e2b4-f10c-5f0b-af99-1f0e52099207",
         "timezone" : "Europe/London",
         "uuid" : "5de29c38-216b-595f-bdb1-465bba1ef21b",
         "version" : "1.0.1"
      },
      {
         "country" : "United Kingdom",
         "latitude" : 53.650608,
         "longitude" : -1.800685,
         "mid" : "1avmQuiiLA9e7Zyf1MCq8d5njaJ4",
         "name" : "Huddersfield",
         "refreshed" : "2023-09-05T02:31:34+00:00",
         "start" : "09:00",
         "start_dst" : "09:00",
         "state" : "bb0043a3-34af-5503-8b32-684f60413596",
         "timezone" : "Europe/London",
         "uuid" : "f8ab2c6b-c5fe-502a-bd43-ccaf097dc9aa",
         "version" : "1.0.1"
      },
      {
         "country" : "United Kingdom",
         "latitude" : 51.609499,
         "longitude" : -3.665573,
         "mid" : "1DjnihstZd2YGMnTS0vmagwxgSP8",
         "name" : "Maesteg",
         "refreshed" : "2023-09-05T02:31:34+00:00",
         "start" : "09:00",
         "start_dst" : "09:00",
         "state" : "555cf6c7-a45b-5f18-8a26-5761b4cc2424",
         "timezone" : "Europe/London",
         "uuid" : "016890a6-bc6f-5459-944c-e2d0dac1a69f",
         "version" : "1.0.1"
      },
      {
         "country" : "United Kingdom",
         "latitude" : 52.895155,
         "longitude" : -1.285853,
         "mid" : "z1IWCRFkMAYk.kFDFB3TOdmX4",
         "name" : "Long Eaton",
         "refreshed" : "2023-09-05T02:31:34+00:00",
         "start" : "09:00",
         "start_dst" : "09:00",
         "state" : "4afa8923-2406-5958-9b95-cb93fa6d0652",
         "timezone" : "Europe/London",
         "uuid" : "3b078737-1df9-5d68-88dc-17fa2ca22696",
         "version" : "1.0.1"
      },
      {
         "country" : "United Kingdom",
         "latitude" : 50.734891,
         "longitude" : -2.013428,
         "mid" : "12zoS0Bgqc3xEBypHBsHzCjbI4yM",
         "name" : "Upton House",
         "refreshed" : "2023-09-05T02:31:34+00:00",
         "start" : "09:00",
         "start_dst" : "09:00",
         "state" : "005ddb7c-abfd-5d64-af1a-d3e15d5ba415",
         "timezone" : "Europe/London",
         "uuid" : "85d4ad21-55f0-595d-bb04-9b8080dffcdb",
         "version" : "1.0.1"
      },
      {
         "country" : "United Kingdom",
         "latitude" : 50.711823,
         "longitude" : -1.286999,
         "mid" : "1m-cKt0EQNFSXIfzGemJVfemMfcMZnKLj",
         "name" : "Medina I.O.W.",
         "refreshed" : "2023-09-05T02:31:34+00:00",
         "start" : "09:00",
         "start_dst" : "09:00",
         "state" : "fc53b76e-3ca8-56dc-80c2-691bf1879ff7",
         "timezone" : "Europe/London",
         "uuid" : "1bd1ce87-b303-5539-919d-ded651a0e87f",
         "version" : "1.0.1"
      },
      {
         "country" : "United States",
         "latitude" : 39.303486,
         "longitude" : -76.707602,
         "mid" : "1B3zf9GUcMvMJw8OqzWT2Jdm56mHU7H8Q",
         "name" : "Leakin Park",
         "refreshed" : "2023-09-05T02:31:34+00:00",
         "start" : "09:00",
         "start_dst" : "09:00",
         "state" : "eb6f0827-6319-5eff-842b-95b1c09223b2",
         "timezone" : "America/New_York",
         "uuid" : "d90846e4-37d2-54d1-8bb6-ac24470ccae1",
         "version" : "1.0.1"
      },
      {
         "country" : "United Kingdom",
         "latitude" : 53.574715,
         "longitude" : -2.395615,
         "mid" : "1zu_6lvyGX1X0tOJiRA6V2hVi8t0",
         "name" : "Bolton",
         "refreshed" : "2023-09-05T02:31:34+00:00",
         "start" : "09:00",
         "start_dst" : "09:00",
         "state" : "7547510c-1f9e-5525-8adc-5a378c8f2e80",
         "timezone" : "Europe/London",
         "uuid" : "c8940f81-584f-5b68-adbe-095a75cb954d",
         "version" : "1.0.1"
      },
      {
         "country" : "United Kingdom",
         "latitude" : 50.358315,
         "longitude" : -4.74285,
         "mid" : "1LZjMF6paqrl5PwZqIUBbogXAP3w",
         "name" : "Eden Project",
         "refreshed" : "2023-09-05T02:31:34+00:00",
         "start" : "09:00",
         "start_dst" : "09:00",
         "state" : "0dd1b7a1-b6f0-50fb-8ce4-24736712c58f",
         "timezone" : "Europe/London",
         "uuid" : "541562a2-1c5e-54c6-bc45-f0390afddf1b",
         "version" : "1.0.1"
      },
      {
         "country" : "United Kingdom",
         "latitude" : 51.585798,
         "longitude" : 0.19249,
         "mid" : "z1IWCRFkMAYk.kDDZoHHaRlWs",
         "name" : "Raphael",
         "refreshed" : "2023-09-05T02:31:34+00:00",
         "start" : "09:00",
         "start_dst" : "09:00",
         "state" : "836922c2-df1b-50af-ab4a-28205d729f6c",
         "timezone" : "Europe/London",
         "uuid" : "4228afa5-3ae6-530e-ac2f-b75d675a93ee",
         "version" : "1.0.1"
      },
      {
         "country" : "United Kingdom",
         "latitude" : 52.565563,
         "longitude" : -0.308132,
         "mid" : "1heMuwZm4uPxewVOVmltgpntgQlw",
         "name" : "Ferry Meadows",
         "refreshed" : "2023-09-05T02:31:34+00:00",
         "start" : "09:00",
         "start_dst" : "09:00",
         "state" : "d4731512-c77c-5974-b00f-4b80dcc0e6b3",
         "timezone" : "Europe/London",
         "uuid" : "47c00783-b5ad-57f9-86e7-1758815923d1",
         "version" : "1.0.1"
      },
      {
         "country" : "United Kingdom",
         "latitude" : 51.726742,
         "longitude" : 0.68877,
         "mid" : "1s6BqqIAQChZ-gpyQdh-gy0grMvI",
         "name" : "Maldon Prom",
         "refreshed" : "2023-09-05T02:31:34+00:00",
         "start" : "09:00",
         "start_dst" : "09:00",
         "state" : "f2e6e7d2-2990-5113-8d41-c14e0f43cc68",
         "timezone" : "Europe/London",
         "uuid" : "984d7cdf-dfca-5e4f-b5fd-c49a21cd810c",
         "version" : "1.0.1"
      },
      {
         "country" : "United Kingdom",
         "latitude" : 53.638407,
         "longitude" : -0.659924,
         "mid" : "1o4N0-XBLnVJkeFYbP8ecejNo5OY",
         "name" : "Normanby Hall",
         "refreshed" : "2023-09-05T02:31:34+00:00",
         "start" : "09:00",
         "start_dst" : "09:00",
         "state" : "55dab7db-5352-5372-8578-712132694850",
         "timezone" : "Europe/London",
         "uuid" : "b28e7be2-d642-52d3-ad2a-77dd9f3f2f0d",
         "version" : "1.0.1"
      },
      {
         "country" : "United Kingdom",
         "latitude" : 51.632966,
         "longitude" : 0.417446,
         "mid" : "1M-kP5Llobw_-CT_Ffs6G5a3bw5y7TJdE",
         "name" : "Billericay",
         "refreshed" : "2023-09-05T02:31:34+00:00",
         "start" : "09:00",
         "start_dst" : "09:00",
         "state" : "86859c45-1e08-55ef-9588-a154d5b3b989",
         "timezone" : "Europe/London",
         "uuid" : "b5d00c80-7f16-5bb5-9220-1e517661cd25",
         "version" : "1.0.1"
      },
      {
         "country" : "United Kingdom",
         "latitude" : 51.069286,
         "longitude" : -1.310849,
         "mid" : "14qzNiaxHF0wsuzac6ed_Zuts7hI",
         "name" : "Winchester",
         "refreshed" : "2023-09-05T02:31:34+00:00",
         "start" : "09:00",
         "start_dst" : "09:00",
         "state" : "6809efd3-df45-554a-affc-3a903a42986f",
         "timezone" : "Europe/London",
         "uuid" : "c8621a1e-59e3-5b11-8245-6c1ff1e6c959",
         "version" : "1.0.1"
      },
      {
         "country" : "United Kingdom",
         "latitude" : 51.62337,
         "longitude" : -0.74009,
         "mid" : "1BtnKSPB9VqVVW4eki_FXtdEYl9c",
         "name" : "Wycombe Rye",
         "refreshed" : "2023-09-05T02:31:34+00:00",
         "start" : "09:00",
         "start_dst" : "09:00",
         "state" : "52052d20-334f-5c96-8514-4fd4704d8b14",
         "timezone" : "Europe/London",
         "uuid" : "9c2f3c83-6e16-5269-94db-3463da7bdf96",
         "version" : "1.0.1"
      },
      {
         "country" : "United Kingdom",
         "latitude" : 51.902634,
         "longitude" : -0.17993,
         "mid" : "1VOGeI482IUcQ6XiYZrA09tFcVN8",
         "name" : "Stevenage",
         "refreshed" : "2023-09-05T02:31:34+00:00",
         "start" : "09:00",
         "start_dst" : "09:00",
         "state" : "63d6b83f-1525-56d0-b7d3-d83c5438cfb5",
         "timezone" : "Europe/London",
         "uuid" : "c9b89abf-1719-5078-ba4a-5f101e796fcd",
         "version" : "1.0.1"
      },
      {
         "country" : "United Kingdom",
         "latitude" : 52.739475,
         "longitude" : -1.543021,
         "mid" : "1eP6VD2K3b9FqHwrjgjdz8mjvKCQ",
         "name" : "Conkers",
         "refreshed" : "2023-09-05T02:31:34+00:00",
         "start" : "09:00",
         "start_dst" : "09:00",
         "state" : "4eff4684-5ba7-5e08-b648-a873de3809c6",
         "timezone" : "Europe/London",
         "uuid" : "3f8b56f8-9854-5317-9dcf-393ebc68c21d",
         "version" : "1.0.1"
      },
      {
         "country" : "United Kingdom",
         "latitude" : 51.072561,
         "longitude" : -4.053612,
         "mid" : "1H-v8d3D2mxnqWJXbteIE4k4cajQ",
         "name" : "Barnstaple",
         "refreshed" : "2023-09-05T02:31:34+00:00",
         "start" : "09:00",
         "start_dst" : "09:00",
         "state" : "7247107f-758b-55f1-b1bd-f4eb2aea0fbc",
         "timezone" : "Europe/London",
         "uuid" : "6abcbd07-8e46-50b4-b725-a341a4baee95",
         "version" : "1.0.1"
      },
      {
         "country" : "United Kingdom",
         "latitude" : 53.424007,
         "longitude" : -1.441612,
         "mid" : "1PMAVfBYEAT7iFrqxGzD0WR5UPsY",
         "name" : "Concord",
         "refreshed" : "2023-09-05T02:31:34+00:00",
         "start" : "09:00",
         "start_dst" : "09:00",
         "state" : "83347e1b-3054-515c-a9c3-3c785570385f",
         "timezone" : "Europe/London",
         "uuid" : "e1ffef49-ed91-5a25-afe3-a05cb7add08f",
         "version" : "1.0.1"
      },
      {
         "country" : "United Kingdom",
         "latitude" : 51.667957,
         "longitude" : -1.277429,
         "mid" : "1KhIif2fXYh3XaOO9xrpzqQeRny4",
         "name" : "Abingdon",
         "refreshed" : "2023-09-05T02:31:34+00:00",
         "start" : "09:00",
         "start_dst" : "09:00",
         "state" : "25dc6fad-6ef9-5467-9c53-e7061b96a6b3",
         "timezone" : "Europe/London",
         "uuid" : "96dac685-fe61-5fb3-83d9-8cdbf72e662b",
         "version" : "1.0.1"
      },